{"meta":{"code":200,"requestId":"5cb21d8ff594df78c105e1ff"},"response":{"venues":[{"id":"4ad62398f964a5204c0521e3","name":"The Perseverance","location":{"address":"63 Lamb's Conduit St","lat":51.52232737088611,"lng":-0.11885183794397038,"labeledLatLngs":[{"label":"display","lat":51.52232737088611,"lng":-0.11885183794397038}],"distance":8,"postalCode":"WC1N 3NB","cc":"GB","city":"London","state":"Greater London","country":"United Kingdom","formattedAddress":["63 Lamb's Conduit St","London","Greater London","WC1N 3NB","United Kingdom"]},"categories":[{"id":"4bf58dd8d48988d11b941735","name":"Pub","pluralName":"Pubs","shortName":"Pub","icon":{"prefix":"https://ss3.4sqi.net/img/categories_v2/nightlife/pub_","suffix":".png"},"primary":true}],"referralId":"v-1555176847","hasPerk":false},{"id":"4bbdcdfaa0a0c9b60bfd1b0f","name":"Tutti's","location":{"address":"68 Lambs Conduit St.","lat":51.52237933923417,"lng":-0.118832835479536,"labeledLatLngs":[{"label":"display","lat":51.52237933923417,"lng":-0.118832835479536}],"distance":4,"postalCode":"WC1N 3LW","cc":"GB","city":"London","state":"Greater London","country":"United Kingdom","formattedAddress":["68 Lambs Conduit St.","London","Greater London","WC1N 3LW","United Kingdom"]},"categories":[{"id":"4bf58dd8d48988d16d941735","name":"Café","pluralName":"Cafés","shortName":"Café","icon":{"prefix":"https://ss3.4sqi.net/img/categories_v2/food/cafe_","suffix":".png"},"primary":true}],"referralId":"v-1555176847","hasPerk":false},{"id":"4ac518e5f964a520f9aa20e3","name":"Ciao Bella","location":{"address":"86-90 Lamb's Conduit St","lat":51.522934841571164,"lng":-0.11916905008163915,"labeledLatLngs":[{"label":"display","lat":51.522934841571164,"lng":-0.11916905008163915}],"distance":68,"postalCode":"WC1N 3LZ","cc":"GB","neighborhood":"Bloom","city":"London","state":"Greater London","country":"United Kingdom","formattedAddress":["86-90 Lamb's Conduit St","London","Greater London","WC1N 3LZ","United Kingdom"]},"categories":[{"id":"4bf58dd8d48988d110941735","name":"Italian Restaurant","pluralName":"Italian Restaurants","shortName":"Italian","icon":{"prefix":"https://ss3.4sqi.net/img/categories_v2/food/italian_","suffix":".png"},"primary":true}],"referralId":"v-1555176847","hasPerk":false},{"id":"4bfe7a92b68d0f47f239ea57","name":"Persephone Books","location":{"address":"59 Lamb's Conduit St","lat":51.52215606780728,"lng":-0.11865989996191674,"labeledLatLngs":[{"label":"display","lat":51.52215606780728,"lng":-0.11865989996191674}],"distance":25,"postalCode":"WC1N 3NB","cc":"GB","city":"Camden Town","state":"Greater London","country":"United Kingdom","formattedAddress":["59 Lamb's Conduit St","Camden Town","Greater London","WC1N 3NB","United Kingdom"]},"categories":[{"id":"4bf58dd8d48988d114951735","name":"Bookstore","pluralName":"Bookstores","shortName":"Bookstore","icon":{"prefix":"https://ss3.4sqi.net/img/categories_v2/shops/bookstore_","suffix":".png"},"primary":true}],"referralId":"v-1555176847","hasPerk":false},{"id":"4bff6e55ca1920a111d3ec81","name":"The People's Supermarket","location":{"address":"72-78 Lamb's Conduit Street","lat":51.52255193676374,"lng":-0.11893302515789118,"labeledLatLngs":[{"label":"display","lat":51.52255193676374,"lng":-0.11893302515789118}],"distance":23,"postalCode":"WC1N 3LP","cc":"GB","city":"Bloomsbury","state":"Greater London","country":"United Kingdom","formattedAddress":["72-78 Lamb's Conduit Street","Bloomsbury","Greater London","WC1N 3LP","United Kingdom"]},"categories":[{"id":"4bf58dd8d48988d118951735","name":"Grocery Store","pluralName":"Grocery Stores","shortName":"Grocery Store","icon":{"prefix":"https://ss3.4sqi.net/img/categories_v2/shops/food_grocery_","suffix":".png"},"primary":true}],"venuePage":{"id":"34977961"},"referralId":"v-1555176847","hasPerk":false},{"id":"5374cd9d498e27a556feeb1b","name":"Ryman","location":{"address":"70 Lambs Conduit St","lat":51.5224494934082,"lng":-0.11868741363286972,"labeledLatLngs":[{"label":"display","lat":51.5224494934082,"lng":-0.11868741363286972}],"distance":9,"postalCode":"WC1N 3LN","cc":"GB","city":"London","state":"Greater London","country":"United Kingdom","formattedAddress":["70 Lambs Conduit St","London","Greater London","WC1N 3LN","United Kingdom"]},"categories":[{"id":"52f2ab2ebcbc57f1066b8b21","name":"Stationery Store","pluralName":"Stationery Stores","shortName":"Stationery Store","icon":{"prefix":"https://ss3.4sqi.net/img/categories_v2/shops/default_","suffix":".png"},"primary":true}],"referralId":"v-1555176847","hasPerk":false},{"id":"523a35af11d22280d8781471","name":"Little Switzerland","location":{"lat":51.522062,"lng":-0.11878,"labeledLatLngs":[{"label":"display","lat":51.522062,"lng":-0.11878}],"distance":34,"cc":"GB","country":"United Kingdom","formattedAddress":["United Kingdom"]},"categories":[{"id":"4d954b06a243a5684965b473","name":"Residential Building (Apartment / Condo)","pluralName":"Residential Buildings (Apartments / Condos)","shortName":"Residential","icon":{"prefix":"https://ss3.4sqi.net/img/categories_v2/building/apartment_","suffix":".png"},"primary":true}],"referralId":"v-1555176847","hasPerk":false},{"id":"4c33223d213c2d7fd263365d","name":"The Conduit Coffee House","location":{"address":"Lamb Conduit Street","lat":51.52219377764111,"lng":-0.11849672703678066,"labeledLatLngs":[{"label":"display","lat":51.52219377764111,"lng":-0.11849672703678066}],"distance":27,"postalCode":"W C1N","cc":"GB","city":"Camden Town","state":"Greater London","country":"United Kingdom","formattedAddress":["Lamb Conduit Street","Camden Town","Greater London","W C1N","United Kingdom"]},"categories":[{"id":"4bf58dd8d48988d16d941735","name":"Café","pluralName":"Cafés","shortName":"Café","icon":{"prefix":"https://ss3.4sqi.net/img/categories_v2/food/cafe_","suffix":".png"},"primary":true}],"referralId":"v-1555176847","hasPerk":false},{"id":"5c35cddd1cf2e1002c12e88b","name":"Russell’s Barbers","location":{"address":"19 Great Ormond Street","lat":51.522221,"lng":-0.118933,"labeledLatLngs":[{"label":"display","lat":51.522221,"lng":-0.118933}],"distance":20,"postalCode":"WC1N 3JB","cc":"GB","city":"London","state":"Greater London","country":"United Kingdom","formattedAddress":["19 Great Ormond Street","London","Greater London","WC1N 3JB","United Kingdom"]},"categories":[{"id":"4bf58dd8d48988d110951735","name":"Salon / Barbershop","pluralName":"Salons / Barbershops","shortName":"Salon / Barbershop","icon":{"prefix":"https://ss3.4sqi.net/img/categories_v2/shops/salon_barber_","suffix":".png"},"primary":true}],"referralId":"v-1555176847","hasPerk":false},{"id":"4ac518c0f964a5206aa320e3","name":"Cigala","location":{"address":"54 Lamb's Conduit Street","lat":51.5218826404422,"lng":-0.11840079053427038,"labeledLatLngs":[{"label":"display","lat":51.5218826404422,"lng":-0.11840079053427038}],"distance":60,"postalCode":"WC1N 3LW","cc":"GB","city":"London","state":"Greater London","country":"United Kingdom","formattedAddress":["54 Lamb's Conduit Street","London","Greater London","WC1N 3LW","United Kingdom"]},"categories":[{"id":"4bf58dd8d48988d1db931735","name":"Tapas Restaurant","pluralName":"Tapas Restaurants","shortName":"Tapas","icon":{"prefix":"https://ss3.4sqi.net/img/categories_v2/food/tapas_","suffix":".png"},"primary":true}],"referralId":"v-1555176847","hasPerk":false},{"id":"4ebcd97ae300ba1043e0e03a","name":"Volte Face","location":{"lat":51.52233157290728,"lng":-0.11907513939822699,"labeledLatLngs":[{"label":"display","lat":51.52233157290728,"lng":-0.11907513939822699}],"distance":22,"cc":"GB","country":"United Kingdom","formattedAddress":["United Kingdom"]},"categories":[{"id":"4bf58dd8d48988d128951735","name":"Gift Shop","pluralName":"Gift Shops","shortName":"Gift Shop","icon":{"prefix":"https://ss3.4sqi.net/img/categories_v2/shops/giftshop_","suffix":".png"},"primary":true}],"referralId":"v-1555176847","hasPerk":false},{"id":"56387431cd10060b84383ec4","name":"Noble Rot","location":{"address":"51 Lamb’s Conduit St","lat":51.521879770610425,"lng":-0.11859634989517259,"labeledLatLngs":[{"label":"display","lat":51.521879770610425,"lng":-0.11859634989517259}],"distance":56,"postalCode":"WC1N 3NB","cc":"GB","city":"London","state":"Greater London","country":"United Kingdom","formattedAddress":["51 Lamb’s Conduit St","London","Greater London","WC1N 3NB","United Kingdom"]},"categories":[{"id":"4bf58dd8d48988d1c4941735","name":"Restaurant","pluralName":"Restaurants","shortName":"Restaurant","icon":{"prefix":"https://ss3.4sqi.net/img/categories_v2/food/default_","suffix":".png"},"primary":true}],"referralId":"v-1555176847","hasPerk":false},{"id":"502cf5f7e4b0bde725395125","name":"Holborn Medical Centre","location":{"address":"Lambs Coundit","lat":51.52226576659422,"lng":-0.11859706355588547,"labeledLatLngs":[{"label":"display","lat":51.52226576659422,"lng":-0.11859706355588547}],"distance":16,"cc":"GB","city":"London","state":"Greater London","country":"United Kingdom","formattedAddress":["Lambs Coundit","London","Greater London","United Kingdom"]},"categories":[{"id":"4bf58dd8d48988d196941735","name":"Hospital","pluralName":"Hospitals","shortName":"Hospital","icon":{"prefix":"https://ss3.4sqi.net/img/categories_v2/building/medical_","suffix":".png"},"primary":true}],"referralId":"v-1555176847","hasPerk":false},{"id":"59d4f303e57ca67d0a891686","name":"La Fromagerie","location":{"address":"52 Lamb’s Conduit Street","lat":51.52179192890955,"lng":-0.11833787564370986,"labeledLatLngs":[{"label":"display","lat":51.52179192890955,"lng":-0.11833787564370986}],"distance":71,"postalCode":"WC1N 3LL","cc":"GB","neighborhood":"Holborn and Covent Garden","city":"London","state":"Greater London","country":"United Kingdom","formattedAddress":["52 Lamb’s Conduit Street","London","Greater London","WC1N 3LL","United Kingdom"]},"categories":[{"id":"4bf58dd8d48988d11e951735","name":"Cheese Shop","pluralName":"Cheese Shops","shortName":"Cheese Shop","icon":{"prefix":"https://ss3.4sqi.net/img/categories_v2/shops/food_cheese_","suffix":".png"},"primary":true}],"referralId":"v-1555176847","hasPerk":false},{"id":"4ada5c8ef964a520dd2121e3","name":"The Lamb","location":{"address":"94 Lamb's Conduit St","lat":51.52308013264982,"lng":-0.1192343775797372,"labeledLatLngs":[{"label":"display","lat":51.52308013264982,"lng":-0.1192343775797372}],"distance":85,"postalCode":"WC1N 3LZ","cc":"GB","city":"Bloomsbury","state":"Greater London","country":"United Kingdom","formattedAddress":["94 Lamb's Conduit St","Bloomsbury","Greater London","WC1N 3LZ","United Kingdom"]},"categories":[{"id":"4bf58dd8d48988d11b941735","name":"Pub","pluralName":"Pubs","shortName":"Pub","icon":{"prefix":"https://ss3.4sqi.net/img/categories_v2/nightlife/pub_","suffix":".png"},"primary":true}],"referralId":"v-1555176847","hasPerk":false},{"id":"5124801ae41278dbee1be680","name":"Folk Women","location":{"address":"53 Lamb's Conduit Street","crossStreet":"at Rugby St.","lat":51.52200219518894,"lng":-0.11851072311401367,"labeledLatLngs":[{"label":"display","lat":51.52200219518894,"lng":-0.11851072311401367}],"distance":44,"postalCode":"WC1N 3NB","cc":"GB","city":"London","state":"Greater London","country":"United Kingdom","formattedAddress":["53 Lamb's Conduit Street (at Rugby St.)","London","Greater London","WC1N 3NB","United Kingdom"]},"categories":[{"id":"4bf58dd8d48988d103951735","name":"Clothing Store","pluralName":"Clothing Stores","shortName":"Apparel","icon":{"prefix":"https://ss3.4sqi.net/img/categories_v2/shops/apparel_","suffix":".png"},"primary":true}],"referralId":"v-1555176847","hasPerk":false},{"id":"4b5705cbf964a5203f2328e3","name":"Great Ormond Street Hospital For Children","location":{"address":"Great Ormond St","lat":51.52200047198426,"lng":-0.12052583565917294,"labeledLatLngs":[{"label":"display","lat":51.52200047198426,"lng":-0.12052583565917294}],"distance":128,"postalCode":"WC1N 1EH","cc":"GB","city":"London","state":"Greater London","country":"United Kingdom","formattedAddress":["Great Ormond St","London","Greater London","WC1N 1EH","United Kingdom"]},"categories":[{"id":"4bf58dd8d48988d196941735","name":"Hospital","pluralName":"Hospitals","shortName":"Hospital","icon":{"prefix":"https://ss3.4sqi.net/img/categories_v2/building/medical_","suffix":".png"},"primary":true}],"referralId":"v-1555176847","hasPerk":false},{"id":"565dec20498ee800dda6104a","name":"Aēsop","location":{"address":"50 Lambs Conduit Street","lat":51.521876176981806,"lng":-0.11837070743466604,"labeledLatLngs":[{"label":"display","lat":51.521876176981806,"lng":-0.11837070743466604}],"distance":61,"postalCode":"WC1N 3LH","cc":"GB","city":"London","state":"Greater London","country":"United Kingdom","formattedAddress":["50 Lambs Conduit Street","London","Greater London","WC1N 3LH","United Kingdom"]},"categories":[{"id":"54541900498ea6ccd0202697","name":"Health & Beauty Service","pluralName":"Health & Beauty Services","shortName":"Health & Beauty","icon":{"prefix":"https://ss3.4sqi.net/img/categories_v2/shops/salon_barber_","suffix":".png"},"primary":true}],"referralId":"v-1555176847","hasPerk":false},{"id":"56631e3f38fa50a786fb8cb0","name":"Albion Wine Shippers","location":{"address":"56 Lamb's Conduit Street","lat":51.521827,"lng":-0.118492,"labeledLatLngs":[{"label":"display","lat":51.521827,"lng":-0.118492}],"distance":63,"cc":"GB","country":"United Kingdom","formattedAddress":["56 Lamb's Conduit Street","United Kingdom"]},"categories":[{"id":"4bf58dd8d48988d119951735","name":"Wine Shop","pluralName":"Wine Shops","shortName":"Wine Shop","icon":{"prefix":"https://ss3.4sqi.net/img/categories_v2/shops/food_wineshop_","suffix":".png"},"primary":true}],"referralId":"v-1555176847","hasPerk":false},{"id":"4b8bef30f964a52045b332e3","name":"Oliver Spencer","location":{"address":"62 Lambs Conduit St.","lat":51.522134343200634,"lng":-0.11865478153298105,"labeledLatLngs":[{"label":"display","lat":51.522134343200634,"lng":-0.11865478153298105}],"distance":27,"postalCode":"WC1N 3LW","cc":"GB","city":"Bloomsbury","state":"Greater London","country":"United Kingdom","formattedAddress":["62 Lambs Conduit St.","Bloomsbury","Greater London","WC1N 3LW","United Kingdom"]},"categories":[{"id":"4bf58dd8d48988d106951735","name":"Men's Store","pluralName":"Men's Stores","shortName":"Men's Store","icon":{"prefix":"https://ss3.4sqi.net/img/categories_v2/shops/apparel_men_","suffix":".png"},"primary":true}],"referralId":"v-1555176847","hasPerk":false},{"id":"59e0e4be25fb7b1501727405","name":"Lullaby Factory","location":{"address":"Great Ormond Street","lat":51.52252,"lng":-0.120728575,"labeledLatLngs":[{"label":"display","lat":51.52252,"lng":-0.120728575}],"distance":137,"postalCode":"WC1N 3HT","cc":"GB","city":"London","state":"Greater London","country":"United Kingdom","formattedAddress":["Great Ormond Street","London","Greater London","WC1N 3HT","United Kingdom"]},"categories":[{"id":"507c8c4091d498d9fc8c67a9","name":"Public Art","pluralName":"Public Art","shortName":"Public Art","icon":{"prefix":"https://ss3.4sqi.net/img/categories_v2/arts_entertainment/default_","suffix":".png"},"primary":true}],"referralId":"v-1555176847","hasPerk":false},{"id":"4b9e061af964a520ecc636e3","name":"Sid's","location":{"address":"61 Lambs Condiut St.","crossStreet":"at Great Ormond St.","lat":51.52221768796966,"lng":-0.11872992598091063,"labeledLatLngs":[{"label":"display","lat":51.52221768796966,"lng":-0.11872992598091063}],"distance":17,"cc":"GB","city":"London","state":"Greater London","country":"United Kingdom","formattedAddress":["61 Lambs Condiut St. (at Great Ormond St.)","Camden","Greater London","United Kingdom"]},"categories":[{"id":"4bf58dd8d48988d16d941735","name":"Café","pluralName":"Cafés","shortName":"Café","icon":{"prefix":"https://ss3.4sqi.net/img/categories_v2/food/cafe_","suffix":".png"},"primary":true}],"referralId":"v-1555176847","hasPerk":false},{"id":"56b30001498e7a88bf1352b0","name":"The Perseverence","location":{"lat":51.5219936,"lng":-0.1187796,"labeledLatLngs":[{"label":"display","lat":51.5219936,"lng":-0.1187796}],"distance":42,"cc":"GB","city":"London","state":"Greater London","country":"United Kingdom","formattedAddress":["London","Greater London","United Kingdom"]},"categories":[{"id":"4bf58dd8d48988d1e5931735","name":"Music Venue","pluralName":"Music Venues","shortName":"Music Venue","icon":{"prefix":"https://ss3.4sqi.net/img/categories_v2/arts_entertainment/musicvenue_","suffix":".png"},"primary":true}],"referralId":"v-1555176847","hasPerk":false},{"id":"595f80432f97ec37ca81ea10","name":"Redemption Roasters","location":{"address":"84b Lamb's Conduit Street","lat":51.52286924274401,"lng":-0.1190263001599399,"labeledLatLngs":[{"label":"display","lat":51.52286924274401,"lng":-0.1190263001599399}],"distance":58,"postalCode":"WC1N 3LR","cc":"GB","neighborhood":"Holborn and Covent Garden","city":"London","state":"Greater London","country":"United Kingdom","formattedAddress":["84b Lamb's Conduit Street","London","Greater London","WC1N 3LR","United Kingdom"]},"categories":[{"id":"4bf58dd8d48988d1e0931735","name":"Coffee Shop","pluralName":"Coffee Shops","shortName":"Coffee Shop","icon":{"prefix":"https://ss3.4sqi.net/img/categories_v2/food/coffeeshop_","suffix":".png"},"primary":true}],"venuePage":{"id":"436906550"},"referralId":"v-1555176847","hasPerk":false},{"id":"5704fd29498e6de43a2d60f7","name":"Coffee Blooms","location":{"lat":51.520818998116845,"lng":-0.11764909153350675,"labeledLatLngs":[{"label":"display","lat":51.520818998116845,"lng":-0.11764909153350675}],"distance":189,"cc":"GB","country":"United Kingdom","formattedAddress":["United Kingdom"]},"categories":[{"id":"4bf58dd8d48988d16d941735","name":"Café","pluralName":"Cafés","shortName":"Café","icon":{"prefix":"https://ss3.4sqi.net/img/categories_v2/food/cafe_","suffix":".png"},"primary":true}],"referralId":"v-1555176847","hasPerk":false},{"id":"500e9a4ee4b090c2d033208e","name":"Universal Works","location":{"lat":51.52153705515078,"lng":-0.11831255909722108,"labeledLatLngs":[{"label":"display","lat":51.52153705515078,"lng":-0.11831255909722108}],"distance":98,"cc":"GB","country":"United Kingdom","formattedAddress":["United Kingdom"]},"categories":[{"id":"4bf58dd8d48988d106951735","name":"Men's Store","pluralName":"Men's Stores","shortName":"Men's Store","icon":{"prefix":"https://ss3.4sqi.net/img/categories_v2/shops/apparel_men_","suffix":".png"},"primary":true}],"referralId":"v-1555176847","hasPerk":false},{"id":"4e0dccdc1f6e9964ea1c0312","name":"The French House","location":{"address":"50 Lambs Conduit St","lat":51.52190651769358,"lng":-0.1184806748753326,"labeledLatLngs":[{"label":"display","lat":51.52190651769358,"lng":-0.1184806748753326}],"distance":55,"postalCode":"WC1N 3LH","cc":"GB","city":"Camden Town","state":"Greater London","country":"United Kingdom","formattedAddress":["50 Lambs Conduit St","Camden Town","Greater London","WC1N 3LH","United Kingdom"]},"categories":[{"id":"4bf58dd8d48988d116951735","name":"Antique Shop","pluralName":"Antique Shops","shortName":"Antiques","icon":{"prefix":"https://ss3.4sqi.net/img/categories_v2/shops/antique_","suffix":".png"},"primary":true}],"referralId":"v-1555176847","hasPerk":false},{"id":"4b6180dff964a520e8152ae3","name":"Execudent","location":{"address":"41 Lambs Conduit St","lat":51.521796,"lng":-0.116217,"labeledLatLngs":[{"label":"display","lat":51.521796,"lng":-0.116217}],"distance":187,"postalCode":"Wc1n 3ng","cc":"GB","city":"Bloomsbury","state":"Greater London","country":"United Kingdom","formattedAddress":["41 Lambs Conduit St","Bloomsbury","Greater London","Wc1n 3ng","United Kingdom"]},"categories":[],"referralId":"v-1555176847","hasPerk":false},{"id":"4ae59397f964a520f8a021e3","name":"Paratus HQ","location":{"address":"17-21","crossStreet":"Emerald Street","lat":51.521289,"lng":-0.117429,"labeledLatLngs":[{"label":"display","lat":51.521289,"lng":-0.117429}],"distance":152,"postalCode":"WC1N 3QN","cc":"GB","city":"Holborn","state":"Greater London","country":"United Kingdom","formattedAddress":["17-21 (Emerald Street)","Holborn","Greater London","WC1N 3QN","United Kingdom"]},"categories":[],"referralId":"v-1555176847","hasPerk":false},{"id":"53493293498e27a9641df8ee","name":"Knockbox Coffee","location":{"address":"29 Lambs Conduit St","lat":51.52130471294353,"lng":-0.11816656550814042,"labeledLatLngs":[{"label":"display","lat":51.52130471294353,"lng":-0.11816656550814042}],"distance":125,"postalCode":"WC1N 3NH","cc":"GB","city":"Greater London","state":"Greater London","country":"United Kingdom","formattedAddress":["29 Lambs Conduit St","Greater London","WC1N 3NH","United Kingdom"]},"categories":[{"id":"4bf58dd8d48988d1e0931735","name":"Coffee Shop","pluralName":"Coffee Shops","shortName":"Coffee Shop","icon":{"prefix":"https://ss3.4sqi.net/img/categories_v2/food/coffeeshop_","suffix":".png"},"primary":true}],"referralId":"v-1555176847","hasPerk":false},{"id":"4eca96c4f9f43c0ee718bdd9","name":"Nuffield Health Bloomsbury Swimming pool","location":{"address":"Mecklenburgh Place","crossStreet":"Bloomsbury","lat":51.52403821763163,"lng":-0.11838197708129883,"labeledLatLngs":[{"label":"display","lat":51.52403821763163,"lng":-0.11838197708129883}],"distance":187,"postalCode":"WC1N 2AY","cc":"GB","city":"London","state":"Greater London","country":"United Kingdom","formattedAddress":["Mecklenburgh Place (Bloomsbury)","London","Greater London","WC1N 2AY","United Kingdom"]},"categories":[{"id":"4bf58dd8d48988d15e941735","name":"Pool","pluralName":"Pools","shortName":"Pool","icon":{"prefix":"https://ss3.4sqi.net/img/categories_v2/parks_outdoors/pool_","suffix":".png"},"primary":true}],"referralId":"v-1555176847","hasPerk":false},{"id":"4ad7563af964a5209e0921e3","name":"The Duke","location":{"address":"7 Roger St","lat":51.52280595077815,"lng":-0.11651944193081445,"labeledLatLngs":[{"label":"display","lat":51.52280595077815,"lng":-0.11651944193081445}],"distance":162,"postalCode":"WC1N 2PB","cc":"GB","city":"Bloomsbury","state":"Greater London","country":"United Kingdom","formattedAddress":["7 Roger St","Bloomsbury","Greater London","WC1N 2PB","United Kingdom"]},"categories":[{"id":"4bf58dd8d48988d11b941735","name":"Pub","pluralName":"Pubs","shortName":"Pub","icon":{"prefix":"https://ss3.4sqi.net/img/categories_v2/nightlife/pub_","suffix":".png"},"primary":true}],"referralId":"v-1555176847","hasPerk":false},{"id":"4c628e46e1349521340db3f0","name":"Kozzy","location":{"address":"53a Red Lion Street","lat":51.51965924040118,"lng":-0.11723229801333396,"labeledLatLngs":[{"label":"display","lat":51.51965924040118,"lng":-0.11723229801333396}],"distance":320,"postalCode":"WC1R 4PD","cc":"GB","city":"London","state":"Greater London","country":"United Kingdom","formattedAddress":["53a Red Lion Street","London","Greater London","WC1R 4PD","United Kingdom"]},"categories":[{"id":"4bf58dd8d48988d1c5941735","name":"Sandwich Place","pluralName":"Sandwich Places","shortName":"Sandwiches","icon":{"prefix":"https://ss3.4sqi.net/img/categories_v2/food/deli_","suffix":".png"},"primary":true}],"referralId":"v-1555176847","hasPerk":false},{"id":"53039be8498e44c7edec858d","name":"Grenson","location":{"address":"40 Lamb's Conduit Street","lat":51.521444867230315,"lng":-0.11827198843064864,"labeledLatLngs":[{"label":"display","lat":51.521444867230315,"lng":-0.11827198843064864}],"distance":108,"postalCode":"WC1N 3LB","cc":"GB","neighborhood":"Bloomsbury, London, Greater London","city":"Greater London","state":"Greater London","country":"United Kingdom","formattedAddress":["40 Lamb's Conduit Street","Greater London","WC1N 3LB","United Kingdom"]},"categories":[{"id":"4bf58dd8d48988d107951735","name":"Shoe Store","pluralName":"Shoe Stores","shortName":"Shoes","icon":{"prefix":"https://ss3.4sqi.net/img/categories_v2/shops/apparel_shoestore_","suffix":".png"},"primary":true}],"referralId":"v-1555176847","hasPerk":false},{"id":"4b8be6f5f964a5206eb132e3","name":"Folk Clothing","location":{"address":"49 Lambs Conduit St","lat":51.52188316229767,"lng":-0.11843237898164805,"labeledLatLngs":[{"label":"display","lat":51.52188316229767,"lng":-0.11843237898164805}],"distance":59,"postalCode":"WC1N 3NG","cc":"GB","city":"Holborn","state":"Greater London","country":"United Kingdom","formattedAddress":["49 Lambs Conduit St","Holborn","Greater London","WC1N 3NG","United Kingdom"]},"categories":[{"id":"4bf58dd8d48988d106951735","name":"Men's Store","pluralName":"Men's Stores","shortName":"Men's Store","icon":{"prefix":"https://ss3.4sqi.net/img/categories_v2/shops/apparel_men_","suffix":".png"},"primary":true}],"referralId":"v-1555176847","hasPerk":false},{"id":"4f1964a3e4b08fa23f9be3af","name":"Sims & macdonald","location":{"lat":51.52141908897947,"lng":-0.11820294257790823,"labeledLatLngs":[{"label":"display","lat":51.52141908897947,"lng":-0.11820294257790823}],"distance":113,"cc":"GB","country":"United Kingdom","formattedAddress":["United Kingdom"]},"categories":[{"id":"4bf58dd8d48988d106951735","name":"Men's Store","pluralName":"Men's Stores","shortName":"Men's Store","icon":{"prefix":"https://ss3.4sqi.net/img/categories_v2/shops/apparel_men_","suffix":".png"},"primary":true}],"referralId":"v-1555176847","hasPerk":false},{"id":"4ace06a9f964a520f5cd20e3","name":"The Espresso Room","location":{"address":"31-35 Great Ormond St.","lat":51.52191,"lng":-0.119774714,"labeledLatLngs":[{"label":"display","lat":51.52191,"lng":-0.119774714}],"distance":87,"postalCode":"WC1N 3HZ","cc":"GB","neighborhood":"Holborn and Covent Garden","city":"London","state":"Greater London","country":"United Kingdom","formattedAddress":["31-35 Great Ormond St.","London","Greater London","WC1N 3HZ","United Kingdom"]},"categories":[{"id":"4bf58dd8d48988d1e0931735","name":"Coffee Shop","pluralName":"Coffee Shops","shortName":"Coffee Shop","icon":{"prefix":"https://ss3.4sqi.net/img/categories_v2/food/coffeeshop_","suffix":".png"},"primary":true}],"venuePage":{"id":"34977960"},"referralId":"v-1555176847","hasPerk":false},{"id":"547f63c1498ec1a5d7d39daa","name":"City Car Club Vehicle","location":{"address":"Lamb's Conduit Street Bloomsbury","lat":51.52108429,"lng":-0.118001103,"labeledLatLngs":[{"label":"display","lat":51.52108429,"lng":-0.118001103}],"distance":152,"cc":"GB","city":"London","state":"Greater London","country":"United Kingdom","formattedAddress":["Lamb's Conduit Street Bloomsbury","London","Greater London","United Kingdom"]},"categories":[{"id":"4bf58dd8d48988d1ef941735","name":"Rental Car Location","pluralName":"Rental Car Locations","shortName":"Rental Car","icon":{"prefix":"https://ss3.4sqi.net/img/categories_v2/shops/airport_rentalcar_","suffix":".png"},"primary":true}],"referralId":"v-1555176847","hasPerk":false},{"id":"4b182dd6f964a52069ce23e3","name":"Rugby Tavern","location":{"address":"19 Great James St","lat":51.522006136421524,"lng":-0.11723494036232945,"labeledLatLngs":[{"label":"display","lat":51.522006136421524,"lng":-0.11723494036232945}],"distance":113,"postalCode":"WC1N 3ES","cc":"GB","city":"Bloomsbury","state":"Greater London","country":"United Kingdom","formattedAddress":["19 Great James St","Bloomsbury","Greater London","WC1N 3ES","United Kingdom"]},"categories":[{"id":"4bf58dd8d48988d11b941735","name":"Pub","pluralName":"Pubs","shortName":"Pub","icon":{"prefix":"https://ss3.4sqi.net/img/categories_v2/nightlife/pub_","suffix":".png"},"primary":true}],"referralId":"v-1555176847","hasPerk":false},{"id":"4c6ad76b96eaa5932f0c21df","name":"Nuffield Health Fitness & Wellbeing Gym","location":{"address":"Mecklenburgh Place","lat":51.524178,"lng":-0.118479,"labeledLatLngs":[{"label":"display","lat":51.524178,"lng":-0.118479}],"distance":201,"postalCode":"WC1N 2AY","cc":"GB","city":"London","state":"Greater London","country":"United Kingdom","formattedAddress":["Mecklenburgh Place","London","Greater London","WC1N 2AY","United Kingdom"]},"categories":[{"id":"4bf58dd8d48988d176941735","name":"Gym","pluralName":"Gyms","shortName":"Gym","icon":{"prefix":"https://ss3.4sqi.net/img/categories_v2/building/gym_","suffix":".png"},"primary":true}],"referralId":"v-1555176847","hasPerk":false},{"id":"4b7e8bcff964a5200bf22fe3","name":"Bel's Cafe","location":{"address":"Lambs Conduit St.","lat":51.521265,"lng":-0.11800259,"labeledLatLngs":[{"label":"display","lat":51.521265,"lng":-0.11800259}],"distance":134,"cc":"GB","city":"London","state":"Greater London","country":"United Kingdom","formattedAddress":["Lambs Conduit St.","London","Greater London","United Kingdom"]},"categories":[{"id":"4bf58dd8d48988d16d941735","name":"Café","pluralName":"Cafés","shortName":"Café","icon":{"prefix":"https://ss3.4sqi.net/img/categories_v2/food/cafe_","suffix":".png"},"primary":true}],"referralId":"v-1555176847","hasPerk":false},{"id":"5b8d8168bd40090039485c10","name":"NumberSixLondon.Com","location":{"address":"47 Lambs Conduit Street","lat":51.521814,"lng":-0.118497,"labeledLatLngs":[{"label":"display","lat":51.521814,"lng":-0.118497}],"distance":65,"postalCode":"WC1N 3NG","cc":"GB","city":"London","state":"Greater London","country":"United Kingdom","formattedAddress":["47 Lambs Conduit Street","London","Greater London","WC1N 3NG","United Kingdom"]},"categories":[{"id":"4bf58dd8d48988d106951735","name":"Men's Store","pluralName":"Men's Stores","shortName":"Men's Store","icon":{"prefix":"https://ss3.4sqi.net/img/categories_v2/shops/apparel_men_","suffix":".png"},"primary":true}],"referralId":"v-1555176847","hasPerk":false},{"id":"51c5c5a3498e977eda40e3a9","name":"Wren","location":{"address":"47 Lamb conduit street","lat":51.52184,"lng":-0.12109,"labeledLatLngs":[{"label":"display","lat":51.52184,"lng":-0.12109}],"distance":171,"cc":"GB","city":"London","state":"Greater London","country":"United Kingdom","formattedAddress":["47 Lamb conduit street","London","Greater London","United Kingdom"]},"categories":[{"id":"4bf58dd8d48988d116951735","name":"Antique Shop","pluralName":"Antique Shops","shortName":"Antiques","icon":{"prefix":"https://ss3.4sqi.net/img/categories_v2/shops/antique_","suffix":".png"},"primary":true}],"referralId":"v-1555176847","hasPerk":false},{"id":"4e70cdaeb3ad44d0b7473eca","name":"Dawson Flowers","location":{"address":"43 Lamb's Conduit Street","lat":51.52198884392168,"lng":-0.11866092681884766,"labeledLatLngs":[{"label":"display","lat":51.52198884392168,"lng":-0.11866092681884766}],"distance":43,"postalCode":"WC1N 3NG","cc":"GB","city":"London","state":"Greater London","country":"United Kingdom","formattedAddress":["43 Lamb's Conduit Street","London","Greater London","WC1N 3NG","United Kingdom"]},"categories":[{"id":"4bf58dd8d48988d11b951735","name":"Flower Shop","pluralName":"Flower Shops","shortName":"Flower Shop","icon":{"prefix":"https://ss3.4sqi.net/img/categories_v2/shops/flowershop_","suffix":".png"},"primary":true}],"referralId":"v-1555176847","hasPerk":false},{"id":"4b44abc5f964a52015f925e3","name":"Salaam Namaste","location":{"address":"68 Millman St.","crossStreet":"Guilford St.","lat":51.52356055282114,"lng":-0.11808565819184569,"labeledLatLngs":[{"label":"display","lat":51.52356055282114,"lng":-0.11808565819184569}],"distance":140,"postalCode":"WC1N 3EF","cc":"GB","city":"Bloomsbury","state":"Greater London","country":"United Kingdom","formattedAddress":["68 Millman St. (Guilford St.)","Bloomsbury","Greater London","WC1N 3EF","United Kingdom"]},"categories":[{"id":"4bf58dd8d48988d10f941735","name":"Indian Restaurant","pluralName":"Indian Restaurants","shortName":"Indian","icon":{"prefix":"https://ss3.4sqi.net/img/categories_v2/food/indian_","suffix":".png"},"primary":true}],"referralId":"v-1555176847","hasPerk":false},{"id":"4bca013ecc8cd13afcabbccf","name":"Coram's Fields","location":{"address":"93 Guilford St","lat":51.523979306549485,"lng":-0.11973619325056666,"labeledLatLngs":[{"label":"display","lat":51.523979306549485,"lng":-0.11973619325056666}],"distance":190,"postalCode":"WC1N 1DN","cc":"GB","city":"Bloomsbury","state":"Greater London","country":"United Kingdom","formattedAddress":["93 Guilford St","Bloomsbury","Greater London","WC1N 1DN","United Kingdom"]},"categories":[{"id":"4bf58dd8d48988d163941735","name":"Park","pluralName":"Parks","shortName":"Park","icon":{"prefix":"https://ss3.4sqi.net/img/categories_v2/parks_outdoors/park_","suffix":".png"},"primary":true}],"referralId":"v-1555176847","hasPerk":false},{"id":"51f27dea498ea41e76bec77c","name":"UKIE","location":{"address":"21-27 Lambs Conduit Street","crossStreet":"Theobalds Rd","lat":51.52111921703406,"lng":-0.11818761959769297,"labeledLatLngs":[{"label":"display","lat":51.52111921703406,"lng":-0.11818761959769297}],"distance":145,"postalCode":"WC1N 3BD","cc":"GB","city":"London","state":"Greater London","country":"United Kingdom","formattedAddress":["21-27 Lambs Conduit Street (Theobalds Rd)","London","Greater London","WC1N 3BD","United Kingdom"]},"categories":[{"id":"4bf58dd8d48988d125941735","name":"Tech Startup","pluralName":"Tech Startups","shortName":"Tech Startup","icon":{"prefix":"https://ss3.4sqi.net/img/categories_v2/shops/technology_","suffix":".png"},"primary":true}],"referralId":"v-1555176847","hasPerk":false},{"id":"4d8b8f1c1508a1433d833e1e","name":"Survivors UK","location":{"address":"34 Great James Street","lat":51.52204,"lng":-0.12066,"labeledLatLngs":[{"label":"display","lat":51.52204,"lng":-0.12066}],"distance":136,"cc":"GB","city":"Holborn","state":"Greater London","country":"United Kingdom","formattedAddress":["34 Great James Street","Holborn","Greater London","United Kingdom"]},"categories":[{"id":"4bf58dd8d48988d124941735","name":"Office","pluralName":"Offices","shortName":"Office","icon":{"prefix":"https://ss3.4sqi.net/img/categories_v2/building/default_","suffix":".png"},"primary":true}],"referralId":"v-1555176847","hasPerk":false},{"id":"4bcef313937ca593c53aaf92","name":"Bikefix","location":{"address":"Lambs Conduit St.","lat":51.52160721,"lng":-0.11825,"labeledLatLngs":[{"label":"display","lat":51.52160721,"lng":-0.11825}],"distance":92,"cc":"GB","city":"Camden Town","state":"Greater London","country":"United Kingdom","formattedAddress":["Lambs Conduit St.","Camden Town","Greater London","United Kingdom"]},"categories":[{"id":"4bf58dd8d48988d115951735","name":"Bike Shop","pluralName":"Bike Shops","shortName":"Bike Shop","icon":{"prefix":"https://ss3.4sqi.net/img/categories_v2/shops/bikeshop_","suffix":".png"},"primary":true}],"referralId":"v-1555176847","hasPerk":false},{"id":"5bf070238c35dc002c177845","name":"Twitchldn","location":{"lat":51.524064,"lng":-0.119818,"labeledLatLngs":[{"label":"display","lat":51.524064,"lng":-0.119818}],"distance":201,"postalCode":"WC1N 1DN","cc":"GB","city":"London","state":"Greater London","country":"United Kingdom","formattedAddress":["London","Greater London","WC1N 1DN","United Kingdom"]},"categories":[{"id":"4bf58dd8d48988d171941735","name":"Event Space","pluralName":"Event Spaces","shortName":"Event Space","icon":{"prefix":"https://ss3.4sqi.net/img/categories_v2/building/eventspace_","suffix":".png"},"primary":true}],"referralId":"v-1555176847","hasPerk":false},{"id":"4fdb0c3be4b024392424faab","name":"St Christopher's Chapel","location":{"address":"Variety Club Building, Great Ormond St Hosptial","lat":51.522429433674546,"lng":-0.12121438980102539,"labeledLatLngs":[{"label":"display","lat":51.522429433674546,"lng":-0.12121438980102539}],"distance":169,"postalCode":"WC1N 1LE","cc":"GB","city":"London","state":"Greater London","country":"United Kingdom","formattedAddress":["Variety Club Building, Great Ormond St Hosptial","London","Greater London","WC1N 1LE","United Kingdom"]},"categories":[{"id":"4bf58dd8d48988d132941735","name":"Church","pluralName":"Churches","shortName":"Church","icon":{"prefix":"https://ss3.4sqi.net/img/categories_v2/building/religious_church_","suffix":".png"},"primary":true}],"referralId":"v-1555176847","hasPerk":false},{"id":"4cffd9402685a35d959fc590","name":"Bloomsbury Big Top","location":{"address":"93 Guildford St","lat":51.523879074954046,"lng":-0.12041480218773468,"labeledLatLngs":[{"label":"display","lat":51.523879074954046,"lng":-0.12041480218773468}],"distance":202,"postalCode":"WC1N 1DN","cc":"GB","neighborhood":"Bloomsbury, London, Greater London","city":"London","state":"Greater London","country":"United Kingdom","formattedAddress":["93 Guildford St","London","Greater London","WC1N 1DN","United Kingdom"]},"categories":[{"id":"4bf58dd8d48988d171941735","name":"Event Space","pluralName":"Event Spaces","shortName":"Event Space","icon":{"prefix":"https://ss3.4sqi.net/img/categories_v2/building/eventspace_","suffix":".png"},"primary":true}],"referralId":"v-1555176847","hasPerk":false},{"id":"4ea695c3823194acfbbf5a0a","name":"John Tucker's Singing Lessons","location":{"address":"49, Great Ormand Street","lat":51.521928,"lng":-0.120739,"labeledLatLngs":[{"label":"display","lat":51.521928,"lng":-0.120739}],"distance":145,"cc":"GB","city":"Camden Town","state":"Greater London","country":"United Kingdom","formattedAddress":["49, Great Ormand Street","Camden Town","Greater London","United Kingdom"]},"categories":[{"id":"4bf58dd8d48988d1e5931735","name":"Music Venue","pluralName":"Music Venues","shortName":"Music Venue","icon":{"prefix":"https://ss3.4sqi.net/img/categories_v2/arts_entertainment/musicvenue_","suffix":".png"},"primary":true}],"referralId":"v-1555176847","hasPerk":false},{"id":"508576f9e4b0d2d665901169","name":"49 Great Ormond Street","location":{"lat":51.521817,"lng":-0.120565,"labeledLatLngs":[{"label":"display","lat":51.521817,"lng":-0.120565}],"distance":139,"cc":"GB","country":"United Kingdom","formattedAddress":["United Kingdom"]},"categories":[{"id":"4bf58dd8d48988d1e5931735","name":"Music Venue","pluralName":"Music Venues","shortName":"Music Venue","icon":{"prefix":"https://ss3.4sqi.net/img/categories_v2/arts_entertainment/musicvenue_","suffix":".png"},"primary":true}],"referralId":"v-1555176847","hasPerk":false},{"id":"4f4cdf7ae4b0c132f589422a","name":"Bailey","location":{"address":"38 Lambs Conduit Street","lat":51.52104089394099,"lng":-0.11790990829467773,"labeledLatLngs":[{"label":"display","lat":51.52104089394099,"lng":-0.11790990829467773}],"distance":159,"postalCode":"WC1N 3LD","cc":"GB","city":"London","state":"Greater London","country":"United Kingdom","formattedAddress":["38 Lambs Conduit Street","London","Greater London","WC1N 3LD","United Kingdom"]},"categories":[{"id":"4bf58dd8d48988d108951735","name":"Women's Store","pluralName":"Women's Stores","shortName":"Women's Store","icon":{"prefix":"https://ss3.4sqi.net/img/categories_v2/shops/apparel_women_","suffix":".png"},"primary":true}],"referralId":"v-1555176847","hasPerk":false},{"id":"4ffe9814e4b0d9a11c81c16b","name":"Rhinegold Publishing","location":{"address":"20 Rugby Street","lat":51.522117614746094,"lng":-0.11824099719524384,"labeledLatLngs":[{"label":"display","lat":51.522117614746094,"lng":-0.11824099719524384}],"distance":46,"cc":"GB","city":"London","state":"Greater London","country":"United Kingdom","formattedAddress":["20 Rugby Street","London","Greater London","United Kingdom"]},"categories":[{"id":"4bf58dd8d48988d174941735","name":"Coworking Space","pluralName":"Coworking Spaces","shortName":"Coworking Space","icon":{"prefix":"https://ss3.4sqi.net/img/categories_v2/building/office_coworkingspace_","suffix":".png"},"primary":true}],"referralId":"v-1555176847","hasPerk":false},{"id":"511f8620e4b02b37a2f2af74","name":"Libidex","location":{"lat":51.523093,"lng":-0.118287,"labeledLatLngs":[{"label":"display","lat":51.523093,"lng":-0.118287}],"distance":86,"cc":"GB","country":"United Kingdom","formattedAddress":["United Kingdom"]},"categories":[{"id":"4bf58dd8d48988d104951735","name":"Boutique","pluralName":"Boutiques","shortName":"Boutique","icon":{"prefix":"https://ss3.4sqi.net/img/categories_v2/shops/apparel_boutique_","suffix":".png"},"primary":true}],"referralId":"v-1555176847","hasPerk":false},{"id":"4b718919f964a520c14b2de3","name":"Cockpit Arts","location":{"address":"Cockpit Yard","lat":51.52152132696786,"lng":-0.11627216358458564,"labeledLatLngs":[{"label":"display","lat":51.52152132696786,"lng":-0.11627216358458564}],"distance":196,"postalCode":"WC1N 2NP","cc":"GB","city":"London","state":"Greater London","country":"United Kingdom","formattedAddress":["Cockpit Yard","London","Greater London","WC1N 2NP","United Kingdom"]},"categories":[{"id":"4bf58dd8d48988d127951735","name":"Arts & Crafts Store","pluralName":"Arts & Crafts Stores","shortName":"Arts & Crafts","icon":{"prefix":"https://ss3.4sqi.net/img/categories_v2/shops/artstore_","suffix":".png"},"primary":true}],"referralId":"v-1555176847","hasPerk":false},{"id":"4f705f72e4b0541c640023bf","name":"Great Ormond Street lagoon restaurant","location":{"lat":51.52316500853075,"lng":-0.12085664336006341,"labeledLatLngs":[{"label":"display","lat":51.52316500853075,"lng":-0.12085664336006341}],"distance":169,"cc":"GB","country":"United Kingdom","formattedAddress":["United Kingdom"]},"categories":[{"id":"4bf58dd8d48988d120951735","name":"Food Court","pluralName":"Food Courts","shortName":"Food Court","icon":{"prefix":"https://ss3.4sqi.net/img/categories_v2/shops/food_foodcourt_","suffix":".png"},"primary":true}],"referralId":"v-1555176847","hasPerk":false},{"id":"4eda1ee293ad464d2822dd76","name":"Macandi Showrooms","location":{"address":"17-21 Emerald Street","lat":51.5213,"lng":-0.1176,"labeledLatLngs":[{"label":"display","lat":51.5213,"lng":-0.1176}],"distance":144,"postalCode":"WC1N 3QN","cc":"GB","city":"London","state":"Greater London","country":"United Kingdom","formattedAddress":["17-21 Emerald Street","London","Greater London","WC1N 3QN","United Kingdom"]},"categories":[{"id":"4bf58dd8d48988d171941735","name":"Event Space","pluralName":"Event Spaces","shortName":"Event Space","icon":{"prefix":"https://ss3.4sqi.net/img/categories_v2/building/eventspace_","suffix":".png"},"primary":true}],"referralId":"v-1555176847","hasPerk":false},{"id":"4fd5bf22e4b078418a8d4161","name":"Pharmacy Cytos","location":{"lat":51.52229438994043,"lng":-0.12080889716068541,"labeledLatLngs":[{"label":"display","lat":51.52229438994043,"lng":-0.12080889716068541}],"distance":141,"cc":"GB","country":"United Kingdom","formattedAddress":["United Kingdom"]},"categories":[{"id":"4bf58dd8d48988d196941735","name":"Hospital","pluralName":"Hospitals","shortName":"Hospital","icon":{"prefix":"https://ss3.4sqi.net/img/categories_v2/building/medical_","suffix":".png"},"primary":true}],"referralId":"v-1555176847","hasPerk":false},{"id":"4d8f691e1716a14389b049f7","name":"Rossi's Ices","location":{"lat":51.523078,"lng":-0.119019,"labeledLatLngs":[{"label":"display","lat":51.523078,"lng":-0.119019}],"distance":80,"cc":"GB","country":"United Kingdom","formattedAddress":["United Kingdom"]},"categories":[{"id":"4bf58dd8d48988d1c9941735","name":"Ice Cream Shop","pluralName":"Ice Cream Shops","shortName":"Ice Cream","icon":{"prefix":"https://ss3.4sqi.net/img/categories_v2/food/icecream_","suffix":".png"},"primary":true}],"referralId":"v-1555176847","hasPerk":false},{"id":"516bbafde4b0f82ae2f5e956","name":"Andy Seymour Photography","location":{"address":"3 Colonnade Bloomsbury","lat":51.52365639358508,"lng":-0.11964615725901752,"labeledLatLngs":[{"label":"display","lat":51.52365639358508,"lng":-0.11964615725901752}],"distance":155,"postalCode":"WC1N 1JA","cc":"GB","country":"United Kingdom","formattedAddress":["3 Colonnade Bloomsbury","WC1N 1JA","United Kingdom"]},"categories":[{"id":"4bf58dd8d48988d130941735","name":"Building","pluralName":"Buildings","shortName":"Building","icon":{"prefix":"https://ss3.4sqi.net/img/categories_v2/building/default_","suffix":".png"},"primary":true}],"referralId":"v-1555176847","hasPerk":false},{"id":"517a3624498e982ba241841a","name":"Micros E-commerce","location":{"lat":51.521026611328125,"lng":-0.11741544306278229,"labeledLatLngs":[{"label":"display","lat":51.521026611328125,"lng":-0.11741544306278229}],"distance":176,"cc":"GB","country":"United Kingdom","formattedAddress":["United Kingdom"]},"categories":[{"id":"4bf58dd8d48988d124941735","name":"Office","pluralName":"Offices","shortName":"Office","icon":{"prefix":"https://ss3.4sqi.net/img/categories_v2/building/default_","suffix":".png"},"primary":true}],"referralId":"v-1555176847","hasPerk":false},{"id":"4bc980f4cc8cd13af8c0bbcf","name":"Crisis Camp London","location":{"address":"23-29 Emerald St","lat":51.521088,"lng":-0.117271,"labeledLatLngs":[{"label":"display","lat":51.521088,"lng":-0.117271}],"distance":176,"cc":"GB","city":"Camden Town","state":"Greater London","country":"United Kingdom","formattedAddress":["23-29 Emerald St","Camden Town","Greater London","United Kingdom"]},"categories":[{"id":"4bf58dd8d48988d171941735","name":"Event Space","pluralName":"Event Spaces","shortName":"Event Space","icon":{"prefix":"https://ss3.4sqi.net/img/categories_v2/building/eventspace_","suffix":".png"},"primary":true}],"referralId":"v-1555176847","hasPerk":false},{"id":"524ad15811d2c40af28df709","name":"Hothouse Media","location":{"lat":51.521240234375,"lng":-0.11769609898328781,"labeledLatLngs":[{"label":"display","lat":51.521240234375,"lng":-0.11769609898328781}],"distance":146,"postalCode":"WC1N 3QL","cc":"GB","city":"London","state":"Greater London","country":"United Kingdom","formattedAddress":["London","Greater London","WC1N 3QL","United Kingdom"]},"categories":[{"id":"4bf58dd8d48988d124941735","name":"Office","pluralName":"Offices","shortName":"Office","icon":{"prefix":"https://ss3.4sqi.net/img/categories_v2/building/default_","suffix":".png"},"primary":true}],"referralId":"v-1555176847","hasPerk":false},{"id":"4eba9c4ad3e3afc0374f6ed3","name":"So Far, The Future","location":{"address":"44 Emerald Street","lat":51.52141896772419,"lng":-0.11845561076789128,"labeledLatLngs":[{"label":"display","lat":51.52141896772419,"lng":-0.11845561076789128}],"distance":108,"cc":"GB","city":"Camden Town","state":"Greater London","country":"United Kingdom","formattedAddress":["44 Emerald Street","Camden Town","Greater London","United Kingdom"]},"categories":[{"id":"4bf58dd8d48988d1e2931735","name":"Art Gallery","pluralName":"Art Galleries","shortName":"Art Gallery","icon":{"prefix":"https://ss3.4sqi.net/img/categories_v2/arts_entertainment/artgallery_","suffix":".png"},"primary":true}],"referralId":"v-1555176847","hasPerk":false},{"id":"4bacb229f964a520a3043be3","name":"Charlie's Café","location":{"lat":51.52022124,"lng":-0.11837676,"labeledLatLngs":[{"label":"display","lat":51.52022124,"lng":-0.11837676}],"distance":241,"cc":"GB","country":"United Kingdom","formattedAddress":["United Kingdom"]},"categories":[{"id":"4bf58dd8d48988d16d941735","name":"Café","pluralName":"Cafés","shortName":"Café","icon":{"prefix":"https://ss3.4sqi.net/img/categories_v2/food/cafe_","suffix":".png"},"primary":true}],"referralId":"v-1555176847","hasPerk":false},{"id":"4e550247d22dad218e039236","name":"Bin Ends","location":{"address":"Lamb' Conduit Street","lat":51.521746447789106,"lng":-0.11939315111735616,"labeledLatLngs":[{"label":"display","lat":51.521746447789106,"lng":-0.11939315111735616}],"distance":82,"cc":"GB","city":"London","state":"Greater London","country":"United Kingdom","formattedAddress":["Lamb' Conduit Street","London","Greater London","United Kingdom"]},"categories":[{"id":"4bf58dd8d48988d119951735","name":"Wine Shop","pluralName":"Wine Shops","shortName":"Wine Shop","icon":{"prefix":"https://ss3.4sqi.net/img/categories_v2/shops/food_wineshop_","suffix":".png"},"primary":true}],"referralId":"v-1555176847","hasPerk":false},{"id":"4d6cc22d24f7ba7aac1d1dd2","name":"Frankie Cochrane","location":{"address":"42 Lambs Conduit Street","crossStreet":"Dombey Street","lat":51.521495118552764,"lng":-0.11821702388438494,"labeledLatLngs":[{"label":"display","lat":51.521495118552764,"lng":-0.11821702388438494}],"distance":104,"postalCode":"WC1N 3LJ","cc":"GB","neighborhood":"Holborn and Covent Garden, London, Greater London","city":"Holborn","state":"Greater London","country":"United Kingdom","formattedAddress":["42 Lambs Conduit Street (Dombey Street)","Holborn","Greater London","WC1N 3LJ","United Kingdom"]},"categories":[{"id":"4bf58dd8d48988d110951735","name":"Salon / Barbershop","pluralName":"Salons / Barbershops","shortName":"Salon / Barbershop","icon":{"prefix":"https://ss3.4sqi.net/img/categories_v2/shops/salon_barber_","suffix":".png"},"primary":true}],"venuePage":{"id":"67120270"},"referralId":"v-1555176847","hasPerk":false},{"id":"4fae5f90e4b03d5226f75e2c","name":"Heritage Research Sample Sale","location":{"address":"Lamb's Conduit Street","lat":51.521915435791016,"lng":-0.11858999729156494,"labeledLatLngs":[{"label":"display","lat":51.521915435791016,"lng":-0.11858999729156494}],"distance":52,"cc":"GB","city":"London","state":"Greater London","country":"United Kingdom","formattedAddress":["Lamb's Conduit Street","London","Greater London","United Kingdom"]},"categories":[{"id":"4bf58dd8d48988d106951735","name":"Men's Store","pluralName":"Men's Stores","shortName":"Men's Store","icon":{"prefix":"https://ss3.4sqi.net/img/categories_v2/shops/apparel_men_","suffix":".png"},"primary":true}],"referralId":"v-1555176847","hasPerk":false},{"id":"568febee498eee43785920c3","name":"Huckle the Barber","location":{"address":"55 Lamb's Conduit Street, Bloomsbury","lat":51.52200279341468,"lng":-0.11853862750835555,"labeledLatLngs":[{"label":"display","lat":51.52200279341468,"lng":-0.11853862750835555}],"distance":44,"postalCode":"WC1N 3NB","cc":"GB","city":"London","state":"Greater London","country":"United Kingdom","formattedAddress":["55 Lamb's Conduit Street, Bloomsbury","London","Greater London","WC1N 3NB","United Kingdom"]},"categories":[{"id":"4bf58dd8d48988d110951735","name":"Salon / Barbershop","pluralName":"Salons / Barbershops","shortName":"Salon / Barbershop","icon":{"prefix":"https://ss3.4sqi.net/img/categories_v2/shops/salon_barber_","suffix":".png"},"primary":true}],"referralId":"v-1555176847","hasPerk":false},{"id":"4c0a31c47e3fc9284a2cf382","name":"Ben Penthreath","location":{"address":"17 Rugby Street","crossStreet":"Lambs Conduit Street","lat":51.521932394603056,"lng":-0.11827403350137365,"labeledLatLngs":[{"label":"display","lat":51.521932394603056,"lng":-0.11827403350137365}],"distance":59,"postalCode":"WC1N 3QT","cc":"GB","city":"London","state":"Greater London","country":"United Kingdom","formattedAddress":["17 Rugby Street (Lambs Conduit Street)","London","Greater London","WC1N 3QT","United Kingdom"]},"categories":[{"id":"4bf58dd8d48988d116951735","name":"Antique Shop","pluralName":"Antique Shops","shortName":"Antiques","icon":{"prefix":"https://ss3.4sqi.net/img/categories_v2/shops/antique_","suffix":".png"},"primary":true}],"referralId":"v-1555176847","hasPerk":false},{"id":"4bbdf8d4a8cf76b05368b2fd","name":"Artquest","location":{"lat":51.52132127556779,"lng":-0.11836051940917969,"labeledLatLngs":[{"label":"display","lat":51.52132127556779,"lng":-0.11836051940917969}],"distance":120,"cc":"GB","country":"United Kingdom","formattedAddress":["United Kingdom"]},"categories":[{"id":"4bf58dd8d48988d199941735","name":"College Arts Building","pluralName":"College Arts Buildings","shortName":"Arts","icon":{"prefix":"https://ss3.4sqi.net/img/categories_v2/arts_entertainment/default_","suffix":".png"},"primary":true}],"referralId":"v-1555176847","hasPerk":false},{"id":"52ac5ecd11d2b6f22c6850c7","name":"J. Crew","location":{"address":"Lamb's Conduit Street","lat":51.5215985675776,"lng":-0.11888863153688348,"labeledLatLngs":[{"label":"display","lat":51.5215985675776,"lng":-0.11888863153688348}],"distance":86,"cc":"GB","country":"United Kingdom","formattedAddress":["Lamb's Conduit Street","United Kingdom"]},"categories":[{"id":"4bf58dd8d48988d106951735","name":"Men's Store","pluralName":"Men's Stores","shortName":"Men's Store","icon":{"prefix":"https://ss3.4sqi.net/img/categories_v2/shops/apparel_men_","suffix":".png"},"primary":true}],"referralId":"v-1555176847","hasPerk":false},{"id":"5bf3e6acd3cce8002c1865ec","name":"Aesop Head Office London","location":{"lat":51.523108,"lng":-0.118278,"labeledLatLngs":[{"label":"display","lat":51.523108,"lng":-0.118278}],"distance":88,"postalCode":"WC1N 3LU","cc":"GB","city":"London","state":"Greater London","country":"United Kingdom","formattedAddress":["London","Greater London","WC1N 3LU","United Kingdom"]},"categories":[{"id":"4bf58dd8d48988d124941735","name":"Office","pluralName":"Offices","shortName":"Office","icon":{"prefix":"https://ss3.4sqi.net/img/categories_v2/building/default_","suffix":".png"},"primary":true}],"referralId":"v-1555176847","hasPerk":false},{"id":"520220de498ec458a26263c6","name":"J.Crew","location":{"address":"38 Lamb's Conduit St","lat":51.521244502017375,"lng":-0.11803626735562575,"labeledLatLngs":[{"label":"display","lat":51.521244502017375,"lng":-0.11803626735562575}],"distance":135,"cc":"GB","city":"London","state":"Greater London","country":"United Kingdom","formattedAddress":["38 Lamb's Conduit St","London","Greater London","United Kingdom"]},"categories":[{"id":"4bf58dd8d48988d103951735","name":"Clothing Store","pluralName":"Clothing Stores","shortName":"Apparel","icon":{"prefix":"https://ss3.4sqi.net/img/categories_v2/shops/apparel_","suffix":".png"},"primary":true}],"referralId":"v-1555176847","hasPerk":false},{"id":"573b1ff1498ef5a1300f74c5","name":"Holiday Esquire","location":{"address":"47 Lambs Conduit Street","lat":51.52183,"lng":-0.11852916,"labeledLatLngs":[{"label":"display","lat":51.52183,"lng":-0.11852916}],"distance":62,"postalCode":"WC1","cc":"GB","city":"London","state":"Greater London","country":"United Kingdom","formattedAddress":["47 Lambs Conduit Street","London","Greater London","WC1","United Kingdom"]},"categories":[{"id":"4bf58dd8d48988d106951735","name":"Men's Store","pluralName":"Men's Stores","shortName":"Men's Store","icon":{"prefix":"https://ss3.4sqi.net/img/categories_v2/shops/apparel_men_","suffix":".png"},"primary":true}],"referralId":"v-1555176847","hasPerk":false},{"id":"50c7b067e4b0c8e85aeb8550","name":"Guide Hall","location":{"lat":51.523764451382334,"lng":-0.11865599844439388,"labeledLatLngs":[{"label":"display","lat":51.523764451382334,"lng":-0.11865599844439388}],"distance":154,"cc":"GB","country":"United Kingdom","formattedAddress":["United Kingdom"]},"categories":[{"id":"4bf58dd8d48988d171941735","name":"Event Space","pluralName":"Event Spaces","shortName":"Event Space","icon":{"prefix":"https://ss3.4sqi.net/img/categories_v2/building/eventspace_","suffix":".png"},"primary":true}],"referralId":"v-1555176847","hasPerk":false},{"id":"4f38f238e4b099ca95ecc77b","name":"Felt Branding","location":{"lat":51.521708,"lng":-0.116553,"labeledLatLngs":[{"label":"display","lat":51.521708,"lng":-0.116553}],"distance":170,"cc":"GB","country":"United Kingdom","formattedAddress":["United Kingdom"]},"categories":[],"referralId":"v-1555176847","hasPerk":false},{"id":"51b3077d498ebbd721869b8b","name":"The Content Store","location":{"lat":51.5211470422889,"lng":-0.11807562069768728,"labeledLatLngs":[{"label":"display","lat":51.5211470422889,"lng":-0.11807562069768728}],"distance":144,"cc":"GB","country":"United Kingdom","formattedAddress":["United Kingdom"]},"categories":[{"id":"4bf58dd8d48988d106951735","name":"Men's Store","pluralName":"Men's Stores","shortName":"Men's Store","icon":{"prefix":"https://ss3.4sqi.net/img/categories_v2/shops/apparel_men_","suffix":".png"},"primary":true}],"referralId":"v-1555176847","hasPerk":false},{"id":"5230718511d2edc33e564ade","name":"RG Lewis","location":{"address":"Southampton Row","crossStreet":"Bloomsbury Way","lat":51.52123490810547,"lng":-0.11757044483138483,"labeledLatLngs":[{"label":"display","lat":51.52123490810547,"lng":-0.11757044483138483}],"distance":151,"cc":"GB","city":"London","state":"Greater London","country":"United Kingdom","formattedAddress":["Southampton Row (Bloomsbury Way)","London","Greater London","United Kingdom"]},"categories":[{"id":"4eb1bdf03b7b55596b4a7491","name":"Camera Store","pluralName":"Camera Stores","shortName":"Camera Store","icon":{"prefix":"https://ss3.4sqi.net/img/categories_v2/shops/camerastore_","suffix":".png"},"primary":true}],"referralId":"v-1555176847","hasPerk":false},{"id":"4f426a9fe4b0d98871f6a5c8","name":"Lamb Bookshop","location":{"lat":51.52131652984308,"lng":-0.11714012166419958,"labeledLatLngs":[{"label":"display","lat":51.52131652984308,"lng":-0.11714012166419958}],"distance":162,"cc":"GB","country":"United Kingdom","formattedAddress":["United Kingdom"]},"categories":[{"id":"4bf58dd8d48988d114951735","name":"Bookstore","pluralName":"Bookstores","shortName":"Bookstore","icon":{"prefix":"https://ss3.4sqi.net/img/categories_v2/shops/bookstore_","suffix":".png"},"primary":true}],"referralId":"v-1555176847","hasPerk":false},{"id":"4acb71eef964a520c6c320e3","name":"London Knowledge Lab","location":{"address":"23-29 Emerald St.","lat":51.52157779244002,"lng":-0.11773308481987702,"labeledLatLngs":[{"label":"display","lat":51.52157779244002,"lng":-0.11773308481987702}],"distance":113,"postalCode":"WC1N 3QS","cc":"GB","city":"Bloomsbury","state":"Greater London","country":"United Kingdom","formattedAddress":["23-29 Emerald St.","Bloomsbury","Greater London","WC1N 3QS","United Kingdom"]},"categories":[{"id":"4bf58dd8d48988d198941735","name":"College Academic Building","pluralName":"College Academic Buildings","shortName":"Academic Building","icon":{"prefix":"https://ss3.4sqi.net/img/categories_v2/education/academicbuilding_","suffix":".png"},"primary":true}],"referralId":"v-1555176847","hasPerk":false},{"id":"4bec3e6f75b2c9b67f35438d","name":"Badlambs","location":{"lat":51.5214792,"lng":-0.118229,"labeledLatLngs":[{"label":"display","lat":51.5214792,"lng":-0.118229}],"distance":106,"cc":"GB","country":"United Kingdom","formattedAddress":["United Kingdom"]},"categories":[{"id":"4bf58dd8d48988d110951735","name":"Salon / Barbershop","pluralName":"Salons / Barbershops","shortName":"Salon / Barbershop","icon":{"prefix":"https://ss3.4sqi.net/img/categories_v2/shops/salon_barber_","suffix":".png"},"primary":true}],"referralId":"v-1555176847","hasPerk":false},{"id":"4cd805653ec4b1f70d55bc3f","name":"Montana Wine And Spirits","location":{"lat":51.52228562235871,"lng":-0.11900081572655208,"labeledLatLngs":[{"label":"display","lat":51.52228562235871,"lng":-0.11900081572655208}],"distance":19,"cc":"GB","country":"United Kingdom","formattedAddress":["United Kingdom"]},"categories":[{"id":"4bf58dd8d48988d186941735","name":"Liquor Store","pluralName":"Liquor Stores","shortName":"Liquor Store","icon":{"prefix":"https://ss3.4sqi.net/img/categories_v2/shops/food_liquor_","suffix":".png"},"primary":true}],"referralId":"v-1555176847","hasPerk":false},{"id":"4d46c0431b62b1f74eaa09e3","name":"Len Fowler Trophies","location":{"lat":51.521873,"lng":-0.118343,"labeledLatLngs":[{"label":"display","lat":51.521873,"lng":-0.118343}],"distance":62,"cc":"GB","city":"Camden Town","state":"Greater London","country":"United Kingdom","formattedAddress":["Camden Town","Greater London","United Kingdom"]},"categories":[{"id":"4bf58dd8d48988d1f4941735","name":"Design Studio","pluralName":"Design Studios","shortName":"Design","icon":{"prefix":"https://ss3.4sqi.net/img/categories_v2/shops/design_","suffix":".png"},"primary":true}],"referralId":"v-1555176847","hasPerk":false},{"id":"4ac518f2f964a5208fae20e3","name":"Something","location":{"address":"58 Lamb’s Conduit Street","lat":51.521352067414675,"lng":-0.1184840640792277,"labeledLatLngs":[{"label":"display","lat":51.521352067414675,"lng":-0.1184840640792277}],"distance":115,"postalCode":"WC1N 3LW","cc":"GB","city":"London","state":"Greater London","country":"United Kingdom","formattedAddress":["58 Lamb’s Conduit Street","London","Greater London","WC1N 3LW","United Kingdom"]},"categories":[{"id":"4bf58dd8d48988d127951735","name":"Arts & Crafts Store","pluralName":"Arts & Crafts Stores","shortName":"Arts & Crafts","icon":{"prefix":"https://ss3.4sqi.net/img/categories_v2/shops/artstore_","suffix":".png"},"primary":true}],"referralId":"v-1555176847","hasPerk":false},{"id":"5921c03762420b2d9a3cffe6","name":"East Bloomsbury","location":{"lat":51.52196,"lng":-0.11784755,"labeledLatLngs":[{"label":"display","lat":51.52196,"lng":-0.11784755}],"distance":78,"postalCode":"WC1N 3QT","cc":"GB","city":"London","state":"Greater London","country":"United Kingdom","formattedAddress":["London","Greater London","WC1N 3QT","United Kingdom"]},"categories":[{"id":"4f2a25ac4b909258e854f55f","name":"Neighborhood","pluralName":"Neighborhoods","shortName":"Neighborhood","icon":{"prefix":"https://ss3.4sqi.net/img/categories_v2/parks_outdoors/neighborhood_","suffix":".png"},"primary":true}],"referralId":"v-1555176847","hasPerk":false},{"id":"4c15f598583c9c7429de3fa4","name":"J&M Insurance Services (UK) Ltd","location":{"address":"14-16 Guilford Street","lat":51.523679,"lng":-0.117894,"labeledLatLngs":[{"label":"display","lat":51.523679,"lng":-0.117894}],"distance":157,"postalCode":"WC1N 1DW","cc":"GB","city":"London","state":"Greater London","country":"United Kingdom","formattedAddress":["14-16 Guilford Street","London","Greater London","WC1N 1DW","United Kingdom"]},"categories":[{"id":"58daa1558bbb0b01f18ec1f1","name":"Insurance Office","pluralName":"Insurance Offices","shortName":"Insurance Office","icon":{"prefix":"https://ss3.4sqi.net/img/categories_v2/shops/financial_","suffix":".png"},"primary":true}],"referralId":"v-1555176847","hasPerk":false},{"id":"4f8fe728e4b0c550e17dad06","name":"Pharmacy Distribution","location":{"lat":51.52223227045054,"lng":-0.1211928629102382,"labeledLatLngs":[{"label":"display","lat":51.52223227045054,"lng":-0.1211928629102382}],"distance":169,"cc":"GB","country":"United Kingdom","formattedAddress":["United Kingdom"]},"categories":[{"id":"4bf58dd8d48988d196941735","name":"Hospital","pluralName":"Hospitals","shortName":"Hospital","icon":{"prefix":"https://ss3.4sqi.net/img/categories_v2/building/medical_","suffix":".png"},"primary":true}],"referralId":"v-1555176847","hasPerk":false},{"id":"533ae31e498ea891035f7568","name":"Denver Dry Cleaners","location":{"address":"80 Lamb's Conduit Street","lat":51.522625,"lng":-0.119072,"labeledLatLngs":[{"label":"display","lat":51.522625,"lng":-0.119072}],"distance":35,"postalCode":"WC1N 3LQ","cc":"GB","city":"London","state":"Greater London","country":"United Kingdom","formattedAddress":["80 Lamb's Conduit Street","London","Greater London","WC1N 3LQ","United Kingdom"]},"categories":[{"id":"52f2ab2ebcbc57f1066b8b1d","name":"Dry Cleaner","pluralName":"Dry Cleaners","shortName":"Dry Cleaner","icon":{"prefix":"https://ss3.4sqi.net/img/categories_v2/shops/drycleaner_","suffix":".png"},"primary":true}],"referralId":"v-1555176847","hasPerk":false},{"id":"513064d0e4b0a2e11ac79934","name":"Millman Court","location":{"address":"Millman Street","lat":51.522960036645884,"lng":-0.11739967345218379,"labeledLatLngs":[{"label":"display","lat":51.522960036645884,"lng":-0.11739967345218379}],"distance":114,"cc":"GB","country":"United Kingdom","formattedAddress":["Millman Street","United Kingdom"]},"categories":[{"id":"4d954b06a243a5684965b473","name":"Residential Building (Apartment / Condo)","pluralName":"Residential Buildings (Apartments / Condos)","shortName":"Residential","icon":{"prefix":"https://ss3.4sqi.net/img/categories_v2/building/apartment_","suffix":".png"},"primary":true}],"referralId":"v-1555176847","hasPerk":false},{"id":"4d6a5ab56297721eed11d4b5","name":"TfL Santander Cycle Hire","location":{"address":"93 Guilford St","crossStreet":"Landsdowne Tr","lat":51.523168530475935,"lng":-0.11938200456969685,"labeledLatLngs":[{"label":"display","lat":51.523168530475935,"lng":-0.11938200456969685}],"distance":98,"postalCode":"WC1N 1DR","cc":"GB","city":"Bloomsbury","state":"Greater London","country":"United Kingdom","formattedAddress":["93 Guilford St (Landsdowne Tr)","Bloomsbury","Greater London","WC1N 1DR","United Kingdom"]},"categories":[{"id":"4e4c9077bd41f78e849722f9","name":"Bike Rental / Bike Share","pluralName":"Bike Rentals / Bike Shares","shortName":"Bike","icon":{"prefix":"https://ss3.4sqi.net/img/categories_v2/shops/bikeshop_","suffix":".png"},"primary":true}],"referralId":"v-1555176847","hasPerk":false},{"id":"4d9c292dc7cbf04d3aca7658","name":"A.P.Watt","location":{"address":"20 Roger street","lat":51.522629,"lng":-0.116091,"labeledLatLngs":[{"label":"display","lat":51.522629,"lng":-0.116091}],"distance":187,"cc":"GB","city":"Camden Town","state":"Greater London","country":"United Kingdom","formattedAddress":["20 Roger street","Camden Town","Greater London","United Kingdom"]},"categories":[{"id":"4bf58dd8d48988d124941735","name":"Office","pluralName":"Offices","shortName":"Office","icon":{"prefix":"https://ss3.4sqi.net/img/categories_v2/building/default_","suffix":".png"},"primary":true}],"referralId":"v-1555176847","hasPerk":false},{"id":"5150671be4b054c69b452063","name":"Thornback and Peel","location":{"address":"7 Rugby Street","lat":51.522016,"lng":-0.117593,"labeledLatLngs":[{"label":"display","lat":51.522016,"lng":-0.117593}],"distance":90,"cc":"GB","country":"United Kingdom","formattedAddress":["7 Rugby Street","United Kingdom"]},"categories":[{"id":"4bf58dd8d48988d128951735","name":"Gift Shop","pluralName":"Gift Shops","shortName":"Gift Shop","icon":{"prefix":"https://ss3.4sqi.net/img/categories_v2/shops/giftshop_","suffix":".png"},"primary":true}],"referralId":"v-1555176847","hasPerk":false},{"id":"4ac518f8f964a52005b020e3","name":"Dolphin Swimming Club","location":{"address":"Malet Street","lat":51.52275435376865,"lng":-0.12137025064686004,"labeledLatLngs":[{"label":"display","lat":51.52275435376865,"lng":-0.12137025064686004}],"distance":185,"postalCode":"WC1E 7HZ","cc":"GB","city":"London","state":"Greater London","country":"United Kingdom","formattedAddress":["Malet Street","London","Greater London","WC1E 7HZ","United Kingdom"]},"categories":[{"id":"4bf58dd8d48988d161941735","name":"Lake","pluralName":"Lakes","shortName":"Lake","icon":{"prefix":"https://ss3.4sqi.net/img/categories_v2/parks_outdoors/lake_","suffix":".png"},"primary":true}],"referralId":"v-1555176847","hasPerk":false},{"id":"4ed062ba99114b488824d100","name":"Boswell Court","location":{"lat":51.52091869410797,"lng":-0.12000908821120851,"labeledLatLngs":[{"label":"display","lat":51.52091869410797,"lng":-0.12000908821120851}],"distance":183,"cc":"GB","country":"United Kingdom","formattedAddress":["United Kingdom"]},"categories":[{"id":"4d954b16a243a5684b65b473","name":"Rest Area","pluralName":"Rest Areas","shortName":"Rest Areas","icon":{"prefix":"https://ss3.4sqi.net/img/categories_v2/travel/restarea_","suffix":".png"},"primary":true}],"referralId":"v-1555176847","hasPerk":false},{"id":"4c76af6f941876b09aead9f8","name":"Ormond House","location":{"address":"27 Boswell St","lat":51.520984658381636,"lng":-0.12099947999630584,"labeledLatLngs":[{"label":"display","lat":51.520984658381636,"lng":-0.12099947999630584}],"distance":218,"postalCode":"WC1N 3JZ","cc":"GB","city":"London","state":"Greater London","country":"United Kingdom","formattedAddress":["27 Boswell St","London","Greater London","WC1N 3JZ","United Kingdom"]},"categories":[{"id":"4bf58dd8d48988d124941735","name":"Office","pluralName":"Offices","shortName":"Office","icon":{"prefix":"https://ss3.4sqi.net/img/categories_v2/building/default_","suffix":".png"},"primary":true}],"referralId":"v-1555176847","hasPerk":false},{"id":"56597fcf498e8b4ee29b0841","name":"Pentreath and Hall","location":{"address":"17 Rugby St","lat":51.52162947405539,"lng":-0.11830146484778321,"labeledLatLngs":[{"label":"display","lat":51.52162947405539,"lng":-0.11830146484778321}],"distance":88,"postalCode":"WC1N 3QT","cc":"GB","city":"London","state":"Greater London","country":"United Kingdom","formattedAddress":["17 Rugby St","London","Greater London","WC1N 3QT","United Kingdom"]},"categories":[{"id":"4bf58dd8d48988d1f4941735","name":"Design Studio","pluralName":"Design Studios","shortName":"Design","icon":{"prefix":"https://ss3.4sqi.net/img/categories_v2/shops/design_","suffix":".png"},"primary":true}],"referralId":"v-1555176847","hasPerk":false},{"id":"58d94c50cf44512e94de5cbe","name":"The Great British Vape Shop","location":{"lat":51.520206,"lng":-0.1183,"labeledLatLngs":[{"label":"display","lat":51.520206,"lng":-0.1183}],"distance":243,"postalCode":"WC1X 8SP","cc":"GB","city":"London","state":"Greater London","country":"United Kingdom","formattedAddress":["London","Greater London","WC1X 8SP","United Kingdom"]},"categories":[{"id":"56aa371be4b08b9a8d57355c","name":"Vape Store","pluralName":"Vape Stores","shortName":"Vape Store","icon":{"prefix":"https://ss3.4sqi.net/img/categories_v2/shops/tobacco_","suffix":".png"},"primary":true}],"referralId":"v-1555176847","hasPerk":false},{"id":"4ffaf13fe4b04f767971e90e","name":"Pharmacy tea room","location":{"lat":51.522209,"lng":-0.120978,"labeledLatLngs":[{"label":"display","lat":51.522209,"lng":-0.120978}],"distance":154,"cc":"GB","country":"United Kingdom","formattedAddress":["United Kingdom"]},"categories":[{"id":"4d954b06a243a5684965b473","name":"Residential Building (Apartment / Condo)","pluralName":"Residential Buildings (Apartments / Condos)","shortName":"Residential","icon":{"prefix":"https://ss3.4sqi.net/img/categories_v2/building/apartment_","suffix":".png"},"primary":true}],"referralId":"v-1555176847","hasPerk":false},{"id":"4d0878c09232236a2d29be53","name":"GroupM","location":{"address":"Lacon House, 84 Theobalds Road","lat":51.520588,"lng":-0.118371,"labeledLatLngs":[{"label":"display","lat":51.520588,"lng":-0.118371}],"distance":200,"cc":"GB","city":"Camden Town","state":"Greater London","country":"United Kingdom","formattedAddress":["Lacon House, 84 Theobalds Road","Camden Town","Greater London","United Kingdom"]},"categories":[{"id":"4bf58dd8d48988d124941735","name":"Office","pluralName":"Offices","shortName":"Office","icon":{"prefix":"https://ss3.4sqi.net/img/categories_v2/building/default_","suffix":".png"},"primary":true}],"referralId":"v-1555176847","hasPerk":false},{"id":"521cc54d498e99760027738e","name":"Speirs+Major","location":{"address":"Emerald Street","crossStreet":"Theobald Road","lat":51.521233,"lng":-0.117473,"labeledLatLngs":[{"label":"display","lat":51.521233,"lng":-0.117473}],"distance":155,"cc":"GB","city":"London","state":"Greater London","country":"United Kingdom","formattedAddress":["Emerald Street (Theobald Road)","London","Greater London","United Kingdom"]},"categories":[{"id":"4bf58dd8d48988d1f4941735","name":"Design Studio","pluralName":"Design Studios","shortName":"Design","icon":{"prefix":"https://ss3.4sqi.net/img/categories_v2/shops/design_","suffix":".png"},"primary":true}],"referralId":"v-1555176847","hasPerk":false},{"id":"51666bbee4b01695f6401073","name":"Room 2, Premier IT","location":{"address":"Premier House","crossStreet":"150 Southampton Row","lat":51.522047932796454,"lng":-0.12077283687645789,"labeledLatLngs":[{"label":"display","lat":51.522047932796454,"lng":-0.12077283687645789}],"distance":143,"postalCode":"WC1B 5AN","cc":"GB","city":"London","state":"Greater London","country":"United Kingdom","formattedAddress":["Premier House (150 Southampton Row)","London","Greater London","WC1B 5AN","United Kingdom"]},"categories":[{"id":"4bf58dd8d48988d127941735","name":"Conference Room","pluralName":"Conference Rooms","shortName":"Conference room","icon":{"prefix":"https://ss3.4sqi.net/img/categories_v2/building/office_conferenceroom_","suffix":".png"},"primary":true}],"referralId":"v-1555176847","hasPerk":false},{"id":"4d01f837725e60fce69441b9","name":"MOM Agency","location":{"address":"62 Lambs Conduit Street","lat":51.52208,"lng":-0.118545,"labeledLatLngs":[{"label":"display","lat":51.52208,"lng":-0.118545}],"distance":36,"postalCode":"WC1N 3LW","cc":"GB","city":"Bloomsbury","state":"Greater London","country":"United Kingdom","formattedAddress":["62 Lambs Conduit Street","Bloomsbury","Greater London","WC1N 3LW","United Kingdom"]},"categories":[{"id":"4bf58dd8d48988d124941735","name":"Office","pluralName":"Offices","shortName":"Office","icon":{"prefix":"https://ss3.4sqi.net/img/categories_v2/building/default_","suffix":".png"},"primary":true}],"referralId":"v-1555176847","hasPerk":false},{"id":"54415126498e8d71416e7e48","name":"Hair by Chantell Mantle","location":{"lat":51.521513,"lng":-0.118337,"labeledLatLngs":[{"label":"display","lat":51.521513,"lng":-0.118337}],"distance":100,"cc":"GB","country":"United Kingdom","formattedAddress":["United Kingdom"]},"categories":[{"id":"4bf58dd8d48988d110951735","name":"Salon / Barbershop","pluralName":"Salons / Barbershops","shortName":"Salon / Barbershop","icon":{"prefix":"https://ss3.4sqi.net/img/categories_v2/shops/salon_barber_","suffix":".png"},"primary":true}],"referralId":"v-1555176847","hasPerk":false},{"id":"4f8e06d5e4b030bfd5678b0e","name":"38 Doughty Street","location":{"lat":51.52412414550781,"lng":-0.11726140230894089,"labeledLatLngs":[{"label":"display","lat":51.52412414550781,"lng":-0.11726140230894089}],"distance":220,"cc":"GB","country":"United Kingdom","formattedAddress":["United Kingdom"]},"categories":[{"id":"4bf58dd8d48988d1f8931735","name":"Bed & Breakfast","pluralName":"Bed & Breakfasts","shortName":"B & B","icon":{"prefix":"https://ss3.4sqi.net/img/categories_v2/travel/bedandbreakfast_","suffix":".png"},"primary":true}],"referralId":"v-1555176847","hasPerk":false},{"id":"50a2925ce4b09ea2f1a71c25","name":"Airbnb Host","location":{"lat":51.52109899602962,"lng":-0.12000555261841596,"labeledLatLngs":[{"label":"display","lat":51.52109899602962,"lng":-0.12000555261841596}],"distance":165,"cc":"GB","country":"United Kingdom","formattedAddress":["United Kingdom"]},"categories":[{"id":"4d954b06a243a5684965b473","name":"Residential Building (Apartment / Condo)","pluralName":"Residential Buildings (Apartments / Condos)","shortName":"Residential","icon":{"prefix":"https://ss3.4sqi.net/img/categories_v2/building/apartment_","suffix":".png"},"primary":true}],"referralId":"v-1555176847","hasPerk":false},{"id":"5436eeb5498e121615f3bc87","name":"wok+wine","location":{"address":"Cockpit Yard","lat":51.52161407470703,"lng":-0.11643069982528687,"labeledLatLngs":[{"label":"display","lat":51.52161407470703,"lng":-0.11643069982528687}],"distance":182,"postalCode":"WC1N 2NP","cc":"GB","city":"London","state":"Greater London","country":"United Kingdom","formattedAddress":["Cockpit Yard","London","Greater London","WC1N 2NP","United Kingdom"]},"categories":[{"id":"4bf58dd8d48988d1cb941735","name":"Food Truck","pluralName":"Food Trucks","shortName":"Food Truck","icon":{"prefix":"https://ss3.4sqi.net/img/categories_v2/food/streetfood_","suffix":".png"},"primary":true}],"referralId":"v-1555176847","hasPerk":false},{"id":"51e0378d498e58a9d8946aa9","name":"The Ottoman Lounge","location":{"address":"31 Theobalds Road","lat":51.52039769811171,"lng":-0.11886799863897925,"labeledLatLngs":[{"label":"display","lat":51.52039769811171,"lng":-0.11886799863897925}],"distance":220,"cc":"GB","city":"London","state":"Greater London","country":"United Kingdom","formattedAddress":["31 Theobalds Road","London","Greater London","United Kingdom"]},"categories":[{"id":"4bf58dd8d48988d110951735","name":"Salon / Barbershop","pluralName":"Salons / Barbershops","shortName":"Salon / Barbershop","icon":{"prefix":"https://ss3.4sqi.net/img/categories_v2/shops/salon_barber_","suffix":".png"},"primary":true}],"referralId":"v-1555176847","hasPerk":false},{"id":"5174ffffe4b05bb904f8c7f1","name":"Neverunderdressed","location":{"lat":51.521433,"lng":-0.117658,"labeledLatLngs":[{"label":"display","lat":51.521433,"lng":-0.117658}],"distance":129,"cc":"GB","country":"United Kingdom","formattedAddress":["United Kingdom"]},"categories":[{"id":"4bf58dd8d48988d124941735","name":"Office","pluralName":"Offices","shortName":"Office","icon":{"prefix":"https://ss3.4sqi.net/img/categories_v2/building/default_","suffix":".png"},"primary":true}],"referralId":"v-1555176847","hasPerk":false},{"id":"4f2260a4e4b0085e47ce6a5c","name":"Brookhouse Hypnotherapy London","location":{"address":"# 7 23-24 Great James St","lat":51.52137870392982,"lng":-0.11751936470437557,"labeledLatLngs":[{"label":"display","lat":51.52137870392982,"lng":-0.11751936470437557}],"distance":140,"postalCode":"Wc1n 3es","cc":"GB","city":"London","state":"Greater London","country":"United Kingdom","formattedAddress":["# 7 23-24 Great James St","London","Greater London","Wc1n 3es","United Kingdom"]},"categories":[{"id":"4bf58dd8d48988d124941735","name":"Office","pluralName":"Offices","shortName":"Office","icon":{"prefix":"https://ss3.4sqi.net/img/categories_v2/building/default_","suffix":".png"},"primary":true}],"referralId":"v-1555176847","hasPerk":false},{"id":"4ce25f4470bba1cd5d7376c4","name":"Vivid Brand","location":{"address":"26-34 Emerld St","lat":51.5215,"lng":-0.117314,"labeledLatLngs":[{"label":"display","lat":51.5215,"lng":-0.117314}],"distance":139,"cc":"GB","city":"London","state":"Greater London","country":"United Kingdom","formattedAddress":["26-34 Emerld St","Camden","Greater London","United Kingdom"]},"categories":[{"id":"4bf58dd8d48988d130941735","name":"Building","pluralName":"Buildings","shortName":"Building","icon":{"prefix":"https://ss3.4sqi.net/img/categories_v2/building/default_","suffix":".png"},"primary":true}],"referralId":"v-1555176847","hasPerk":false},{"id":"4ff32844e4b03e29563ba722","name":"Holborn Life Drawing","location":{"address":"51 Millman Street","lat":51.523006439208984,"lng":-0.11771400272846222,"labeledLatLngs":[{"label":"display","lat":51.523006439208984,"lng":-0.11771400272846222}],"distance":101,"cc":"GB","country":"United Kingdom","formattedAddress":["51 Millman Street","United Kingdom"]},"categories":[{"id":"4bf58dd8d48988d1e2931735","name":"Art Gallery","pluralName":"Art Galleries","shortName":"Art Gallery","icon":{"prefix":"https://ss3.4sqi.net/img/categories_v2/arts_entertainment/artgallery_","suffix":".png"},"primary":true}],"referralId":"v-1555176847","hasPerk":false},{"id":"4d9b6254422ea1cdff5dfb4c","name":"Guilford Place Recycling Centre","location":{"address":"Guilford Place","crossStreet":"at Guilford St","lat":51.523511,"lng":-0.11927,"labeledLatLngs":[{"label":"display","lat":51.523511,"lng":-0.11927}],"distance":131,"cc":"GB","city":"London","state":"Greater London","country":"United Kingdom","formattedAddress":["Guilford Place (at Guilford St)","Camden","Greater London","United Kingdom"]},"categories":[{"id":"4bf58dd8d48988d126941735","name":"Government Building","pluralName":"Government Buildings","shortName":"Government","icon":{"prefix":"https://ss3.4sqi.net/img/categories_v2/building/government_","suffix":".png"},"primary":true}],"referralId":"v-1555176847","hasPerk":false},{"id":"4bfbc8aeab180f47323bb4ce","name":"Totaljobs Group","location":{"address":"84 Theobalds Road","lat":51.520604563244426,"lng":-0.1182546647990593,"labeledLatLngs":[{"label":"display","lat":51.520604563244426,"lng":-0.1182546647990593}],"distance":200,"postalCode":"WC1X 8TG","cc":"GB","city":"Holborn","state":"Greater London","country":"United Kingdom","formattedAddress":["84 Theobalds Road","Holborn","Greater London","WC1X 8TG","United Kingdom"]},"categories":[{"id":"4bf58dd8d48988d124941735","name":"Office","pluralName":"Offices","shortName":"Office","icon":{"prefix":"https://ss3.4sqi.net/img/categories_v2/building/default_","suffix":".png"},"primary":true}],"referralId":"v-1555176847","hasPerk":false},{"id":"5368d219498e1bd39f3c49b5","name":"Puffin SDAU","location":{"address":"Great Ormond Street Hospital","lat":51.522761,"lng":-0.121519,"labeledLatLngs":[{"label":"display","lat":51.522761,"lng":-0.121519}],"distance":195,"cc":"GB","city":"London","state":"Greater London","country":"United Kingdom","formattedAddress":["Great Ormond Street Hospital","London","Greater London","United Kingdom"]},"categories":[{"id":"4bf58dd8d48988d196941735","name":"Hospital","pluralName":"Hospitals","shortName":"Hospital","icon":{"prefix":"https://ss3.4sqi.net/img/categories_v2/building/medical_","suffix":".png"},"primary":true}],"referralId":"v-1555176847","hasPerk":false},{"id":"4ba36001f964a520453838e3","name":"Paratus Communications HQ","location":{"address":"17-21 Emerald Street","lat":51.521325049999994,"lng":-0.117733,"labeledLatLngs":[{"label":"display","lat":51.521325049999994,"lng":-0.117733}],"distance":136,"postalCode":"WC1N 3QN","cc":"GB","city":"London","state":"Greater London","country":"United Kingdom","formattedAddress":["17-21 Emerald Street","London","Greater London","WC1N 3QN","United Kingdom"]},"categories":[{"id":"4bf58dd8d48988d124941735","name":"Office","pluralName":"Offices","shortName":"Office","icon":{"prefix":"https://ss3.4sqi.net/img/categories_v2/building/default_","suffix":".png"},"primary":true}],"referralId":"v-1555176847","hasPerk":false},{"id":"4d80b725360b224b6bdcde56","name":"CHILDREN with LEUKAEMIA","location":{"address":"51 Great Ormond Street","lat":51.522014,"lng":-0.120194,"labeledLatLngs":[{"label":"display","lat":51.522014,"lng":-0.120194}],"distance":106,"postalCode":"WC1N 3JQ","cc":"GB","city":"London","state":"Greater London","country":"United Kingdom","formattedAddress":["51 Great Ormond Street","London","Greater London","WC1N 3JQ","United Kingdom"]},"categories":[{"id":"4bf58dd8d48988d124941735","name":"Office","pluralName":"Offices","shortName":"Office","icon":{"prefix":"https://ss3.4sqi.net/img/categories_v2/building/default_","suffix":".png"},"primary":true}],"referralId":"v-1555176847","hasPerk":false},{"id":"4ba88b31f964a52055df39e3","name":"Bradford and Bingley Building","location":{"address":"21-27 Lambs Conduit Street","lat":51.521268,"lng":-0.118258,"labeledLatLngs":[{"label":"display","lat":51.521268,"lng":-0.118258}],"distance":127,"postalCode":"WC1N 3BD","cc":"GB","city":"Bloomsbury","state":"Greater London","country":"United Kingdom","formattedAddress":["21-27 Lambs Conduit Street","Bloomsbury","Greater London","WC1N 3BD","United Kingdom"]},"categories":[{"id":"4bf58dd8d48988d130941735","name":"Building","pluralName":"Buildings","shortName":"Building","icon":{"prefix":"https://ss3.4sqi.net/img/categories_v2/building/default_","suffix":".png"},"primary":true}],"referralId":"v-1555176847","hasPerk":false},{"id":"4f8ebdbfe4b047e9ee8e4469","name":"Pharmacy TPN","location":{"address":"Great Ormond street Hospital","lat":51.522484222713516,"lng":-0.12095936195755008,"labeledLatLngs":[{"label":"display","lat":51.522484222713516,"lng":-0.12095936195755008}],"distance":152,"cc":"GB","country":"United Kingdom","formattedAddress":["Great Ormond street Hospital","United Kingdom"]},"categories":[{"id":"4bf58dd8d48988d196941735","name":"Hospital","pluralName":"Hospitals","shortName":"Hospital","icon":{"prefix":"https://ss3.4sqi.net/img/categories_v2/building/medical_","suffix":".png"},"primary":true}],"referralId":"v-1555176847","hasPerk":false},{"id":"53a39788498e1475242b89e3","name":"Casino Nightclub","location":{"lat":51.5232962,"lng":-0.1206175,"labeledLatLngs":[{"label":"display","lat":51.5232962,"lng":-0.1206175}],"distance":164,"cc":"GB","city":"Guildford","state":"Surrey","country":"United Kingdom","formattedAddress":["Guildford","Surrey","United Kingdom"]},"categories":[],"referralId":"v-1555176847","hasPerk":false},{"id":"4c7d357bdb3fbfb7a4fb9027","name":"Weston House","location":{"address":"Great Ormond Street","lat":51.5216782074827,"lng":-0.12079214411414657,"labeledLatLngs":[{"label":"display","lat":51.5216782074827,"lng":-0.12079214411414657}],"distance":160,"cc":"GB","city":"London","state":"Greater London","country":"United Kingdom","formattedAddress":["Great Ormond Street","London","Greater London","United Kingdom"]},"categories":[{"id":"4bf58dd8d48988d124941735","name":"Office","pluralName":"Offices","shortName":"Office","icon":{"prefix":"https://ss3.4sqi.net/img/categories_v2/building/default_","suffix":".png"},"primary":true}],"referralId":"v-1555176847","hasPerk":false},{"id":"4e1060f2b0fbfef99b883652","name":"Joy","location":{"lat":51.52090849147894,"lng":-0.12064812043080095,"labeledLatLngs":[{"label":"display","lat":51.52090849147894,"lng":-0.12064812043080095}],"distance":208,"cc":"GB","city":"London","state":"Greater London","country":"United Kingdom","formattedAddress":["London","Greater London","United Kingdom"]},"categories":[{"id":"4bf58dd8d48988d1ff941735","name":"Miscellaneous Shop","pluralName":"Miscellaneous Shops","shortName":"Shop","icon":{"prefix":"https://ss3.4sqi.net/img/categories_v2/shops/default_","suffix":".png"},"primary":true}],"referralId":"v-1555176847","hasPerk":false},{"id":"4db837df815445bd47ce9697","name":"5 Doughty Street","location":{"address":"5 Doughty Street","lat":51.523129,"lng":-0.116603,"labeledLatLngs":[{"label":"display","lat":51.523129,"lng":-0.116603}],"distance":171,"cc":"GB","city":"Camden Town","state":"Greater London","country":"United Kingdom","formattedAddress":["5 Doughty Street","Camden Town","Greater London","United Kingdom"]},"categories":[{"id":"4bf58dd8d48988d1fa931735","name":"Hotel","pluralName":"Hotels","shortName":"Hotel","icon":{"prefix":"https://ss3.4sqi.net/img/categories_v2/travel/hotel_","suffix":".png"},"primary":true}],"referralId":"v-1555176847","hasPerk":false},{"id":"4d787eaca56e3704e8186c67","name":"Dinosaur SDAU","location":{"address":"Great Ormond Street","lat":51.52248481729039,"lng":-0.12027504655846796,"labeledLatLngs":[{"label":"display","lat":51.52248481729039,"lng":-0.12027504655846796}],"distance":105,"postalCode":"WC1N 3JH","cc":"GB","city":"Camden Town","state":"Greater London","country":"United Kingdom","formattedAddress":["Great Ormond Street","Camden Town","Greater London","WC1N 3JH","United Kingdom"]},"categories":[{"id":"4bf58dd8d48988d130941735","name":"Building","pluralName":"Buildings","shortName":"Building","icon":{"prefix":"https://ss3.4sqi.net/img/categories_v2/building/default_","suffix":".png"},"primary":true}],"referralId":"v-1555176847","hasPerk":false},{"id":"4bc5a529ccbcef3b9fbae6d2","name":"Maxus","location":{"address":"84 Theobalds Rd","lat":51.52060257410594,"lng":-0.11827474938952766,"labeledLatLngs":[{"label":"display","lat":51.52060257410594,"lng":-0.11827474938952766}],"distance":200,"postalCode":"WC1X 8RW","cc":"GB","city":"London","state":"Greater London","country":"United Kingdom","formattedAddress":["84 Theobalds Rd","London","Greater London","WC1X 8RW","United Kingdom"]},"categories":[{"id":"4bf58dd8d48988d124941735","name":"Office","pluralName":"Offices","shortName":"Office","icon":{"prefix":"https://ss3.4sqi.net/img/categories_v2/building/default_","suffix":".png"},"primary":true}],"referralId":"v-1555176847","hasPerk":false},{"id":"4e6866dae4cda3907ec95d7c","name":"Great James Street","location":{"lat":51.521086819993705,"lng":-0.11677731835265269,"labeledLatLngs":[{"label":"display","lat":51.521086819993705,"lng":-0.11677731835265269}],"distance":198,"cc":"GB","city":"London","state":"Greater London","country":"United Kingdom","formattedAddress":["London","Greater London","United Kingdom"]},"categories":[{"id":"4bf58dd8d48988d162941735","name":"Other Great Outdoors","pluralName":"Other Great Outdoors","shortName":"Other Outdoors","icon":{"prefix":"https://ss3.4sqi.net/img/categories_v2/parks_outdoors/outdoors_","suffix":".png"},"primary":true}],"referralId":"v-1555176847","hasPerk":false},{"id":"4e02ff4c1f6edc160233db24","name":"NHNN Autonomic Unit","location":{"address":"Queen Square","lat":51.522622,"lng":-0.117458,"labeledLatLngs":[{"label":"display","lat":51.522622,"lng":-0.117458}],"distance":94,"cc":"GB","city":"Bloomsbury","state":"Greater London","country":"United Kingdom","formattedAddress":["Queen Square","Bloomsbury","Greater London","United Kingdom"]},"categories":[{"id":"4bf58dd8d48988d196941735","name":"Hospital","pluralName":"Hospitals","shortName":"Hospital","icon":{"prefix":"https://ss3.4sqi.net/img/categories_v2/building/medical_","suffix":".png"},"primary":true}],"referralId":"v-1555176847","hasPerk":false},{"id":"507a9fdee4b0c101c6e8c9c1","name":"University of the Arts London Richbell Place","location":{"lat":51.521139482429625,"lng":-0.11757334853209113,"labeledLatLngs":[{"label":"display","lat":51.521139482429625,"lng":-0.11757334853209113}],"distance":160,"cc":"GB","country":"United Kingdom","formattedAddress":["United Kingdom"]},"categories":[{"id":"4bf58dd8d48988d197941735","name":"College Administrative Building","pluralName":"College Administrative Buildings","shortName":"Administrative Building","icon":{"prefix":"https://ss3.4sqi.net/img/categories_v2/education/administrativebuilding_","suffix":".png"},"primary":true}],"referralId":"v-1555176847","hasPerk":false},{"id":"4ea1799fb8f7e4911e3202c5","name":"Egypt Exploration Society","location":{"lat":51.52316,"lng":-0.117034,"labeledLatLngs":[{"label":"display","lat":51.52316,"lng":-0.117034}],"distance":148,"cc":"GB","city":"Camden Town","state":"Greater London","country":"United Kingdom","formattedAddress":["Camden Town","Greater London","United Kingdom"]},"categories":[{"id":"4bf58dd8d48988d12f941735","name":"Library","pluralName":"Libraries","shortName":"Library","icon":{"prefix":"https://ss3.4sqi.net/img/categories_v2/building/library_","suffix":".png"},"primary":true}],"referralId":"v-1555176847","hasPerk":false},{"id":"4e23c5abd1647406321dfe66","name":"Saco","location":{"address":"72-84 Lamb's Conduit St.","lat":51.52268290580728,"lng":-0.118930676438742,"labeledLatLngs":[{"label":"display","lat":51.52268290580728,"lng":-0.118930676438742}],"distance":36,"postalCode":"WC1N 3LT","cc":"GB","city":"Holborn","state":"Greater London","country":"United Kingdom","formattedAddress":["72-84 Lamb's Conduit St.","Holborn","Greater London","WC1N 3LT","United Kingdom"]},"categories":[{"id":"4bf58dd8d48988d1fa931735","name":"Hotel","pluralName":"Hotels","shortName":"Hotel","icon":{"prefix":"https://ss3.4sqi.net/img/categories_v2/travel/hotel_","suffix":".png"},"primary":true}],"referralId":"v-1555176847","hasPerk":false},{"id":"4ff85427e4b03705ceb28a74","name":"fine italian delicatessen","location":{"lat":51.5208705,"lng":-0.1181001,"labeledLatLngs":[{"label":"display","lat":51.5208705,"lng":-0.1181001}],"distance":173,"cc":"GB","country":"United Kingdom","formattedAddress":["United Kingdom"]},"categories":[{"id":"4bf58dd8d48988d110941735","name":"Italian Restaurant","pluralName":"Italian Restaurants","shortName":"Italian","icon":{"prefix":"https://ss3.4sqi.net/img/categories_v2/food/italian_","suffix":".png"},"primary":true}],"referralId":"v-1555176847","hasPerk":false},{"id":"4bc5c6ebccbcef3b7bece6d2","name":"Lacon House","location":{"address":"84 Theobalds Road","lat":51.52058563270743,"lng":-0.11826425699558125,"labeledLatLngs":[{"label":"display","lat":51.52058563270743,"lng":-0.11826425699558125}],"distance":202,"cc":"GB","city":"Camden Town","state":"Greater London","country":"United Kingdom","formattedAddress":["84 Theobalds Road","Camden Town","Greater London","United Kingdom"]},"categories":[{"id":"4bf58dd8d48988d124941735","name":"Office","pluralName":"Offices","shortName":"Office","icon":{"prefix":"https://ss3.4sqi.net/img/categories_v2/building/default_","suffix":".png"},"primary":true}],"referralId":"v-1555176847","hasPerk":false},{"id":"52cc5859498e5aa7b54f18e8","name":"Millman Street Community Centre","location":{"address":"Millmam St","lat":51.52227754165798,"lng":-0.11751015544576582,"labeledLatLngs":[{"label":"display","lat":51.52227754165798,"lng":-0.11751015544576582}],"distance":87,"postalCode":"WC1N 3EW","cc":"GB","city":"London","state":"Greater London","country":"United Kingdom","formattedAddress":["Millmam St","London","Greater London","WC1N 3EW","United Kingdom"]},"categories":[{"id":"50328a8e91d4c4b30a586d6c","name":"Non-Profit","pluralName":"Non-Profits","shortName":"Non-Profit","icon":{"prefix":"https://ss3.4sqi.net/img/categories_v2/building/default_","suffix":".png"},"primary":true}],"referralId":"v-1555176847","hasPerk":false},{"id":"4c235ba09a67a59362dedd87","name":"fonebank.com","location":{"address":"3 Long Yard","lat":51.52279424225873,"lng":-0.1185829315643731,"labeledLatLngs":[{"label":"display","lat":51.52279424225873,"lng":-0.1185829315643731}],"distance":48,"postalCode":"WC1 N 3","cc":"GB","city":"Camden Town","state":"Greater London","country":"United Kingdom","formattedAddress":["3 Long Yard","Camden Town","Greater London","WC1 N 3","United Kingdom"]},"categories":[{"id":"4bf58dd8d48988d124941735","name":"Office","pluralName":"Offices","shortName":"Office","icon":{"prefix":"https://ss3.4sqi.net/img/categories_v2/building/default_","suffix":".png"},"primary":true}],"referralId":"v-1555176847","hasPerk":false},{"id":"4e09fb5d483b98d417217615","name":"Cube PR","location":{"address":"47 Lambs Conduit Street","lat":51.521669976635295,"lng":-0.11822482698447502,"labeledLatLngs":[{"label":"display","lat":51.521669976635295,"lng":-0.11822482698447502}],"distance":86,"postalCode":"WC1N 3NG","cc":"GB","city":"London","state":"Greater London","country":"United Kingdom","formattedAddress":["47 Lambs Conduit Street","London","Greater London","WC1N 3NG","United Kingdom"]},"categories":[{"id":"4bf58dd8d48988d130941735","name":"Building","pluralName":"Buildings","shortName":"Building","icon":{"prefix":"https://ss3.4sqi.net/img/categories_v2/building/default_","suffix":".png"},"primary":true}],"referralId":"v-1555176847","hasPerk":false},{"id":"4eef7a5c00393753454c6d11","name":"Flexioffices - London Serviced Offices","location":{"address":"14-18 Emerald Street","lat":51.521094300098234,"lng":-0.11790990829467773,"labeledLatLngs":[{"label":"display","lat":51.521094300098234,"lng":-0.11790990829467773}],"distance":154,"postalCode":"WC1N 3QA","cc":"GB","city":"London","state":"Greater London","country":"United Kingdom","formattedAddress":["14-18 Emerald Street","London","Greater London","WC1N 3QA","United Kingdom"]},"categories":[{"id":"4bf58dd8d48988d124941735","name":"Office","pluralName":"Offices","shortName":"Office","icon":{"prefix":"https://ss3.4sqi.net/img/categories_v2/building/default_","suffix":".png"},"primary":true}],"referralId":"v-1555176847","hasPerk":false},{"id":"4e315396922ea20b3461b7a7","name":"MediaCom marketing department","location":{"address":"124 Theobalds Toad","lat":51.520600290754025,"lng":-0.1183176040649414,"labeledLatLngs":[{"label":"display","lat":51.520600290754025,"lng":-0.1183176040649414}],"distance":199,"postalCode":"WC1X 8RX","cc":"GB","neighborhood":"Holborn and Covent Garden","city":"London","state":"Greater London","country":"United Kingdom","formattedAddress":["124 Theobalds Toad","London","Greater London","WC1X 8RX","United Kingdom"]},"categories":[{"id":"4bf58dd8d48988d124941735","name":"Office","pluralName":"Offices","shortName":"Office","icon":{"prefix":"https://ss3.4sqi.net/img/categories_v2/building/default_","suffix":".png"},"primary":true}],"referralId":"v-1555176847","hasPerk":false},{"id":"50c75457526251f0602b32ba","name":"QUISMA","location":{"address":"26 Red Lion Square","lat":51.52038666343198,"lng":-0.11829614639282227,"labeledLatLngs":[{"label":"display","lat":51.52038666343198,"lng":-0.11829614639282227}],"distance":223,"postalCode":"WC1R 4HQ","cc":"GB","city":"London","state":"Greater London","country":"United Kingdom","formattedAddress":["26 Red Lion Square","London","Greater London","WC1R 4HQ","United Kingdom"]},"categories":[{"id":"4bf58dd8d48988d124941735","name":"Office","pluralName":"Offices","shortName":"Office","icon":{"prefix":"https://ss3.4sqi.net/img/categories_v2/building/default_","suffix":".png"},"primary":true}],"referralId":"v-1555176847","hasPerk":false},{"id":"4f71aca4e4b03bf2b0031ab5","name":"ICH - UCL Institute of Child Health","location":{"address":"30 Guildford Street","lat":51.523196657040494,"lng":-0.11989434834533368,"labeledLatLngs":[{"label":"display","lat":51.523196657040494,"lng":-0.11989434834533368}],"distance":120,"postalCode":"WC1N 1EH","cc":"GB","city":"London","state":"Greater London","country":"United Kingdom","formattedAddress":["30 Guildford Street","London","Greater London","WC1N 1EH","United Kingdom"]},"categories":[{"id":"4bf58dd8d48988d198941735","name":"College Academic Building","pluralName":"College Academic Buildings","shortName":"Academic Building","icon":{"prefix":"https://ss3.4sqi.net/img/categories_v2/education/academicbuilding_","suffix":".png"},"primary":true}],"referralId":"v-1555176847","hasPerk":false},{"id":"4bd58dd029eb9c74577193e1","name":"Camelia Botnar Laboratories","location":{"address":"Lamb's Conduit Street","lat":51.522855627497485,"lng":-0.11912221384243832,"labeledLatLngs":[{"label":"display","lat":51.522855627497485,"lng":-0.11912221384243832}],"distance":59,"cc":"GB","city":"Camden Town","state":"Greater London","country":"United Kingdom","formattedAddress":["Lamb's Conduit Street","Camden Town","Greater London","United Kingdom"]},"categories":[{"id":"4bf58dd8d48988d196941735","name":"Hospital","pluralName":"Hospitals","shortName":"Hospital","icon":{"prefix":"https://ss3.4sqi.net/img/categories_v2/building/medical_","suffix":".png"},"primary":true}],"referralId":"v-1555176847","hasPerk":false},{"id":"4d93551b7ac3a35d5832d425","name":"Shortlist Media","location":{"address":"26-34 Emerald Street","lat":51.52157701102055,"lng":-0.11758730456672435,"labeledLatLngs":[{"label":"display","lat":51.52157701102055,"lng":-0.11758730456672435}],"distance":120,"cc":"GB","city":"London","state":"Greater London","country":"United Kingdom","formattedAddress":["26-34 Emerald Street","London","Greater London","United Kingdom"]},"categories":[{"id":"4bf58dd8d48988d124941735","name":"Office","pluralName":"Offices","shortName":"Office","icon":{"prefix":"https://ss3.4sqi.net/img/categories_v2/building/default_","suffix":".png"},"primary":true}],"referralId":"v-1555176847","hasPerk":false},{"id":"4dbff9dc043706a0320a16bf","name":"Connock & Lockie","location":{"address":"33 Lamb's Conduit Street","lat":51.521412,"lng":-0.118167,"labeledLatLngs":[{"label":"display","lat":51.521412,"lng":-0.118167}],"distance":114,"postalCode":"WC1N 3NG","cc":"GB","city":"Camden Town","state":"Greater London","country":"United Kingdom","formattedAddress":["33 Lamb's Conduit Street","Camden Town","Greater London","WC1N 3NG","United Kingdom"]},"categories":[{"id":"4bf58dd8d48988d106951735","name":"Men's Store","pluralName":"Men's Stores","shortName":"Men's Store","icon":{"prefix":"https://ss3.4sqi.net/img/categories_v2/shops/apparel_men_","suffix":".png"},"primary":true}],"referralId":"v-1555176847","hasPerk":false},{"id":"4c8d1dd6cf3ea143d546fb51","name":"St George C of E","location":{"address":"Queen Square","crossStreet":"Cosmo place","lat":51.52102465097017,"lng":-0.12246896273215624,"labeledLatLngs":[{"label":"display","lat":51.52102465097017,"lng":-0.12246896273215624}],"distance":297,"postalCode":"WC1 N 3","cc":"GB","city":"Bloomsbury","state":"Greater London","country":"United Kingdom","formattedAddress":["Queen Square (Cosmo place)","Bloomsbury","Greater London","WC1 N 3","United Kingdom"]},"categories":[{"id":"4bf58dd8d48988d132941735","name":"Church","pluralName":"Churches","shortName":"Church","icon":{"prefix":"https://ss3.4sqi.net/img/categories_v2/building/religious_church_","suffix":".png"},"primary":true}],"referralId":"v-1555176847","hasPerk":false},{"id":"4dac36eacda1652a2bb2b2b9","name":"Conduit Dental Centre","location":{"address":"41 Lambs Conduit Street","lat":51.52164475393593,"lng":-0.11834745236093946,"labeledLatLngs":[{"label":"display","lat":51.52164475393593,"lng":-0.11834745236093946}],"distance":86,"postalCode":"WC1N 3NG","cc":"GB","city":"London","state":"Greater London","country":"United Kingdom","formattedAddress":["41 Lambs Conduit Street","London","Greater London","WC1N 3NG","United Kingdom"]},"categories":[{"id":"4bf58dd8d48988d178941735","name":"Dentist's Office","pluralName":"Dentist's Offices","shortName":"Dentist's Office","icon":{"prefix":"https://ss3.4sqi.net/img/categories_v2/building/medical_dentist_","suffix":".png"},"primary":true}],"referralId":"v-1555176847","hasPerk":false},{"id":"58a84a33a19e904f9fd318ec","name":"12hrs on tour","location":{"lat":51.523884,"lng":-0.118152,"labeledLatLngs":[{"label":"display","lat":51.523884,"lng":-0.118152}],"distance":173,"cc":"GB","country":"United Kingdom","formattedAddress":["United Kingdom"]},"categories":[{"id":"4f04b25d2fb6e1c99f3db0c0","name":"Travel Lounge","pluralName":"Travel Lounges","shortName":"Lounge","icon":{"prefix":"https://ss3.4sqi.net/img/categories_v2/nightlife/default_","suffix":".png"},"primary":true}],"referralId":"v-1555176847","hasPerk":false},{"id":"4eb49dae9adf11527353f8b7","name":"1st Online Solutions Ltd","location":{"address":"26 Red Lion street","lat":51.521450934544795,"lng":-0.11840519375270878,"labeledLatLngs":[{"label":"display","lat":51.521450934544795,"lng":-0.11840519375270878}],"distance":105,"postalCode":"WC1R 4PS","cc":"GB","city":"Camden Town","state":"Greater London","country":"United Kingdom","formattedAddress":["26 Red Lion street","Camden Town","Greater London","WC1R 4PS","United Kingdom"]},"categories":[{"id":"4bf58dd8d48988d125941735","name":"Tech Startup","pluralName":"Tech Startups","shortName":"Tech Startup","icon":{"prefix":"https://ss3.4sqi.net/img/categories_v2/shops/technology_","suffix":".png"},"primary":true}],"referralId":"v-1555176847","hasPerk":false},{"id":"527cf17c11d29b5fa252b95c","name":"Blue Morpho","location":{"address":"39 Lambs Conduit","lat":51.521573,"lng":-0.118312,"labeledLatLngs":[{"label":"display","lat":51.521573,"lng":-0.118312}],"distance":94,"cc":"GB","city":"London","state":"Greater London","country":"United Kingdom","formattedAddress":["39 Lambs Conduit","London","Greater London","United Kingdom"]},"categories":[{"id":"4bf58dd8d48988d16d941735","name":"Café","pluralName":"Cafés","shortName":"Café","icon":{"prefix":"https://ss3.4sqi.net/img/categories_v2/food/cafe_","suffix":".png"},"primary":true}],"venuePage":{"id":"82030636"},"referralId":"v-1555176847","hasPerk":false},{"id":"4b5ebca9f964a520329729e3","name":"New Scientist UK Hq","location":{"address":"84 Theobald's Road","lat":51.52053080390158,"lng":-0.11835423579936745,"labeledLatLngs":[{"label":"display","lat":51.52053080390158,"lng":-0.11835423579936745}],"distance":207,"postalCode":"WC1X 8NS","cc":"GB","city":"London","state":"Greater London","country":"United Kingdom","formattedAddress":["84 Theobald's Road","London","Greater London","WC1X 8NS","United Kingdom"]},"categories":[{"id":"4bf58dd8d48988d124941735","name":"Office","pluralName":"Offices","shortName":"Office","icon":{"prefix":"https://ss3.4sqi.net/img/categories_v2/building/default_","suffix":".png"},"primary":true}],"referralId":"v-1555176847","hasPerk":false},{"id":"50ca0776498ef0e122dc96e3","name":"Leolin Price Lecture Theatre","location":{"lat":51.523135,"lng":-0.119668,"labeledLatLngs":[{"label":"display","lat":51.523135,"lng":-0.119668}],"distance":105,"cc":"GB","country":"United Kingdom","formattedAddress":["United Kingdom"]},"categories":[{"id":"4bf58dd8d48988d1b3941735","name":"Medical School","pluralName":"Medical Schools","shortName":"Medical School","icon":{"prefix":"https://ss3.4sqi.net/img/categories_v2/building/medical_","suffix":".png"},"primary":true}],"referralId":"v-1555176847","hasPerk":false},{"id":"544cffe2498e767f777c8273","name":"Pistachios In The Park","location":{"address":"93 Gullford St","lat":51.523737349828465,"lng":-0.12040680591748992,"labeledLatLngs":[{"label":"display","lat":51.523737349828465,"lng":-0.12040680591748992}],"distance":189,"postalCode":"WC1N 1DN","cc":"GB","city":"London","state":"Greater London","country":"United Kingdom","formattedAddress":["93 Gullford St","London","Greater London","WC1N 1DN","United Kingdom"]},"categories":[{"id":"4bf58dd8d48988d16d941735","name":"Café","pluralName":"Cafés","shortName":"Café","icon":{"prefix":"https://ss3.4sqi.net/img/categories_v2/food/cafe_","suffix":".png"},"primary":true}],"referralId":"v-1555176847","hasPerk":false},{"id":"585975a66d349d4de1d44e69","name":"Amazon Locker - Charlie","location":{"lat":51.522421,"lng":-0.120585,"labeledLatLngs":[{"label":"display","lat":51.522421,"lng":-0.120585}],"distance":126,"cc":"GB","country":"United Kingdom","formattedAddress":["United Kingdom"]},"categories":[{"id":"4bf58dd8d48988d1ff941735","name":"Miscellaneous Shop","pluralName":"Miscellaneous Shops","shortName":"Shop","icon":{"prefix":"https://ss3.4sqi.net/img/categories_v2/shops/default_","suffix":".png"},"primary":true}],"referralId":"v-1555176847","hasPerk":false},{"id":"4babbc49f964a520f6c43ae3","name":"Danny's Gourmet Wraps","location":{"address":"31 Lambs Conduit St","crossStreet":"Dombey St","lat":51.52143683933045,"lng":-0.11823045644941309,"labeledLatLngs":[{"label":"display","lat":51.52143683933045,"lng":-0.11823045644941309}],"distance":110,"postalCode":"WC1N 3NG","cc":"GB","city":"London","state":"Greater London","country":"United Kingdom","formattedAddress":["31 Lambs Conduit St (Dombey St)","London","Greater London","WC1N 3NG","United Kingdom"]},"categories":[{"id":"4bf58dd8d48988d1c5941735","name":"Sandwich Place","pluralName":"Sandwich Places","shortName":"Sandwiches","icon":{"prefix":"https://ss3.4sqi.net/img/categories_v2/food/deli_","suffix":".png"},"primary":true}],"referralId":"v-1555176847","hasPerk":false},{"id":"532070fd498e63ae31d5d053","name":"11-15 Emerald Street","location":{"address":"Emerald Street","lat":51.52091162253533,"lng":-0.11734116401556875,"labeledLatLngs":[{"label":"display","lat":51.52091162253533,"lng":-0.11734116401556875}],"distance":190,"cc":"GB","city":"London","state":"Greater London","country":"United Kingdom","formattedAddress":["Emerald Street","London","Greater London","United Kingdom"]},"categories":[{"id":"4bf58dd8d48988d124941735","name":"Office","pluralName":"Offices","shortName":"Office","icon":{"prefix":"https://ss3.4sqi.net/img/categories_v2/building/default_","suffix":".png"},"primary":true}],"referralId":"v-1555176847","hasPerk":false},{"id":"4f64d57be4b08b476fc102a3","name":"Flexi Nails","location":{"address":"30 Lamb's Conduit","crossStreet":"Dombey St","lat":51.521147123027944,"lng":-0.1180811898103164,"labeledLatLngs":[{"label":"display","lat":51.521147123027944,"lng":-0.1180811898103164}],"distance":144,"postalCode":"WC1N 3LE","cc":"GB","city":"London","state":"Greater London","country":"United Kingdom","formattedAddress":["30 Lamb's Conduit (Dombey St)","London","Greater London","WC1N 3LE","United Kingdom"]},"categories":[{"id":"4f04aa0c2fb6e1c99f3db0b8","name":"Nail Salon","pluralName":"Nail Salons","shortName":"Nail Salon","icon":{"prefix":"https://ss3.4sqi.net/img/categories_v2/shops/nailsalon_","suffix":".png"},"primary":true}],"referralId":"v-1555176847","hasPerk":false},{"id":"535fad41498ec6dcfe172d7d","name":"Clear Light Clinic","location":{"address":"42 Lambs Conduit Street","lat":51.52208897833072,"lng":-0.11861801147460938,"labeledLatLngs":[{"label":"display","lat":51.52208897833072,"lng":-0.11861801147460938}],"distance":33,"postalCode":"WC1N 3LJ","cc":"GB","city":"London","state":"Greater London","country":"United Kingdom","formattedAddress":["42 Lambs Conduit Street","London","Greater London","WC1N 3LJ","United Kingdom"]},"categories":[{"id":"4bf58dd8d48988d104941735","name":"Medical Center","pluralName":"Medical Centers","shortName":"Medical","icon":{"prefix":"https://ss3.4sqi.net/img/categories_v2/building/medical_","suffix":".png"},"primary":true}],"referralId":"v-1555176847","hasPerk":false},{"id":"57b2eb7f498e5230da073732","name":"Pierre Delpino - Personal Barber & Stylist","location":{"lat":51.522146,"lng":-0.118581,"labeledLatLngs":[{"label":"display","lat":51.522146,"lng":-0.118581}],"distance":28,"postalCode":"WC1N 3NA","cc":"GB","city":"London","state":"Greater London","country":"United Kingdom","formattedAddress":["London","Greater London","WC1N 3NA","United Kingdom"]},"categories":[{"id":"4bf58dd8d48988d110951735","name":"Salon / Barbershop","pluralName":"Salons / Barbershops","shortName":"Salon / Barbershop","icon":{"prefix":"https://ss3.4sqi.net/img/categories_v2/shops/salon_barber_","suffix":".png"},"primary":true}],"referralId":"v-1555176847","hasPerk":false},{"id":"4bfcd9d78992a5934a46abb0","name":"Inland Revenue","location":{"lat":51.52380081031361,"lng":-0.11802746365078931,"labeledLatLngs":[{"label":"display","lat":51.52380081031361,"lng":-0.11802746365078931}],"distance":166,"cc":"GB","country":"United Kingdom","formattedAddress":["United Kingdom"]},"categories":[],"referralId":"v-1555176847","hasPerk":false},{"id":"4d5287dcdcce224b4341ed1b","name":"Schuller Opticians","location":{"address":"44 Lamb's Conduit St","crossStreet":"Emerald St","lat":51.52152154710147,"lng":-0.11820495128631592,"labeledLatLngs":[{"label":"display","lat":51.52152154710147,"lng":-0.11820495128631592}],"distance":102,"postalCode":"WC1N 3LB","cc":"GB","city":"London","state":"Greater London","country":"United Kingdom","formattedAddress":["44 Lamb's Conduit St (Emerald St)","London","Greater London","WC1N 3LB","United Kingdom"]},"categories":[{"id":"4d954afda243a5684865b473","name":"Optical Shop","pluralName":"Optical Shops","shortName":"Optical","icon":{"prefix":"https://ss3.4sqi.net/img/categories_v2/building/medical_opticalshop_","suffix":".png"},"primary":true}],"referralId":"v-1555176847","hasPerk":false},{"id":"4dbabae5fa8c2e303f2bea8b","name":"Friday I'm In Love","location":{"address":"12 Doughty Mews","lat":51.523591,"lng":-0.117526,"labeledLatLngs":[{"label":"display","lat":51.523591,"lng":-0.117526}],"distance":160,"cc":"GB","city":"Camden Town","state":"Greater London","country":"United Kingdom","formattedAddress":["12 Doughty Mews","Camden Town","Greater London","United Kingdom"]},"categories":[{"id":"4d4b7105d754a06376d81259","name":"Nightlife Spot","pluralName":"Nightlife Spots","shortName":"Nightlife","icon":{"prefix":"https://ss3.4sqi.net/img/categories_v2/nightlife/default_","suffix":".png"},"primary":true}],"referralId":"v-1555176847","hasPerk":false},{"id":"4d79f0ae1bf03704dbf0d8d5","name":"Groovy Gecko","location":{"lat":51.522814,"lng":-0.116167,"labeledLatLngs":[{"label":"display","lat":51.522814,"lng":-0.116167}],"distance":186,"cc":"GB","country":"United Kingdom","formattedAddress":["United Kingdom"]},"categories":[{"id":"4bf58dd8d48988d124941735","name":"Office","pluralName":"Offices","shortName":"Office","icon":{"prefix":"https://ss3.4sqi.net/img/categories_v2/building/default_","suffix":".png"},"primary":true}],"referralId":"v-1555176847","hasPerk":false},{"id":"4c8a71c49ef0224bd0f55a7b","name":"Charlie","location":{"address":"theobalds road","lat":51.520324,"lng":-0.118422,"labeledLatLngs":[{"label":"display","lat":51.520324,"lng":-0.118422}],"distance":229,"postalCode":"WC1 R 4","cc":"GB","city":"Camden Town","state":"Greater London","country":"United Kingdom","formattedAddress":["theobalds road","Camden Town","Greater London","WC1 R 4","United Kingdom"]},"categories":[{"id":"4bf58dd8d48988d116941735","name":"Bar","pluralName":"Bars","shortName":"Bar","icon":{"prefix":"https://ss3.4sqi.net/img/categories_v2/nightlife/pub_","suffix":".png"},"primary":true}],"referralId":"v-1555176847","hasPerk":false},{"id":"4f744084e4b07e696315569d","name":"Operating Theatres (GOSH)","location":{"address":"Great Ormond Street","lat":51.522078463907185,"lng":-0.12103716635424516,"labeledLatLngs":[{"label":"display","lat":51.522078463907185,"lng":-0.12103716635424516}],"distance":160,"postalCode":"WC1N 3JH","cc":"GB","city":"London","state":"Greater London","country":"United Kingdom","formattedAddress":["Great Ormond Street","London","Greater London","WC1N 3JH","United Kingdom"]},"categories":[{"id":"4bf58dd8d48988d194941735","name":"Emergency Room","pluralName":"Emergency Rooms","shortName":"Emergency Room","icon":{"prefix":"https://ss3.4sqi.net/img/categories_v2/building/medical_ems_","suffix":".png"},"primary":true}],"referralId":"v-1555176847","hasPerk":false},{"id":"56730f85498e3a03dfe90c38","name":"J.Crew Lambs Thirty-Eight Conduit","location":{"address":"38 Lambs Conduit Street","lat":51.5214011,"lng":-0.1180146,"labeledLatLngs":[{"label":"display","lat":51.5214011,"lng":-0.1180146}],"distance":120,"postalCode":"WC1N 3LJ","cc":"GB","city":"London","country":"United Kingdom","formattedAddress":["38 Lambs Conduit Street","London","WC1N 3LJ","United Kingdom"]},"categories":[{"id":"4bf58dd8d48988d103951735","name":"Clothing Store","pluralName":"Clothing Stores","shortName":"Apparel","icon":{"prefix":"https://ss3.4sqi.net/img/categories_v2/shops/apparel_","suffix":".png"},"primary":true}],"referralId":"v-1555176847","hasPerk":false},{"id":"4de605867d8b53987c565406","name":"A. France Funeral Directors","location":{"lat":51.52188289,"lng":-0.11819516,"labeledLatLngs":[{"label":"display","lat":51.52188289,"lng":-0.11819516}],"distance":67,"cc":"GB","country":"United Kingdom","formattedAddress":["United Kingdom"]},"categories":[{"id":"4f4534884b9074f6e4fb0174","name":"Funeral Home","pluralName":"Funeral Homes","shortName":"Funeral Home","icon":{"prefix":"https://ss3.4sqi.net/img/categories_v2/building/funeralhome_","suffix":".png"},"primary":true}],"referralId":"v-1555176847","hasPerk":false},{"id":"5849279cfda3d83bd35c2526","name":"Feilden + Mawson LLP","location":{"lat":51.521356,"lng":-0.118434,"labeledLatLngs":[{"label":"display","lat":51.521356,"lng":-0.118434}],"distance":115,"cc":"GB","country":"United Kingdom","formattedAddress":["United Kingdom"]},"categories":[{"id":"4bf58dd8d48988d124941735","name":"Office","pluralName":"Offices","shortName":"Office","icon":{"prefix":"https://ss3.4sqi.net/img/categories_v2/building/default_","suffix":".png"},"primary":true}],"referralId":"v-1555176847","hasPerk":false},{"id":"514067a2e4b084291a93d9d2","name":"The Roland Levinsky Room","location":{"lat":51.523183902922426,"lng":-0.11941078766751938,"labeledLatLngs":[{"label":"display","lat":51.523183902922426,"lng":-0.11941078766751938}],"distance":100,"cc":"GB","country":"United Kingdom","formattedAddress":["United Kingdom"]},"categories":[{"id":"4bf58dd8d48988d1af941735","name":"College Auditorium","pluralName":"College Auditoriums","shortName":"Auditorium","icon":{"prefix":"https://ss3.4sqi.net/img/categories_v2/building/auditorium_","suffix":".png"},"primary":true}],"referralId":"v-1555176847","hasPerk":false}],"confident":false}}