{"meta":{"code":200,"requestId":"5cb45042351e3d3ef2bc5979"},"response":{"venues":[{"id":"5a68162d23a2e61ce43ce275","name":"WeWork 131 Finsbury Pavement","location":{"address":"131 Finsbury Pavement","lat":51.5201758,"lng":-0.0875699,"labeledLatLngs":[{"label":"display","lat":51.5201758,"lng":-0.0875699}],"distance":15,"postalCode":"EC2A 1NT","cc":"GB","city":"London","state":"Greater London","country":"United Kingdom","formattedAddress":["131 Finsbury Pavement","London","Greater London","EC2A 1NT","United Kingdom"]},"categories":[{"id":"4bf58dd8d48988d130941735","name":"Building","pluralName":"Buildings","shortName":"Building","icon":{"prefix":"https://ss3.4sqi.net/img/categories_v2/building/default_","suffix":".png"},"primary":true}],"referralId":"v-1555320898","hasPerk":false},{"id":"4b6af8eef964a520cee92be3","name":"Starbucks","location":{"address":"Units 4, 74/78 Finsbury Pavement","crossStreet":"City Rd","lat":51.520259,"lng":-0.087148,"labeledLatLngs":[{"label":"display","lat":51.520259,"lng":-0.087148}],"distance":30,"postalCode":"EC2A 1AT","cc":"GB","city":"London","state":"Greater London","country":"United Kingdom","formattedAddress":["Units 4, 74/78 Finsbury Pavement (City Rd)","London","Greater London","EC2A 1AT","United Kingdom"]},"categories":[{"id":"4bf58dd8d48988d1e0931735","name":"Coffee Shop","pluralName":"Coffee Shops","shortName":"Coffee Shop","icon":{"prefix":"https://ss3.4sqi.net/img/categories_v2/food/coffeeshop_","suffix":".png"},"primary":true}],"referralId":"v-1555320898","hasPerk":false},{"id":"4dcbc1f78877502200db9c17","name":"Finsbury Dials","location":{"lat":51.52046325478357,"lng":-0.0882410449101243,"labeledLatLngs":[{"label":"display","lat":51.52046325478357,"lng":-0.0882410449101243}],"distance":49,"cc":"GB","city":"Islington","state":"Greater London","country":"United Kingdom","formattedAddress":["Islington","Greater London","United Kingdom"]},"categories":[{"id":"4bf58dd8d48988d130941735","name":"Building","pluralName":"Buildings","shortName":"Building","icon":{"prefix":"https://ss3.4sqi.net/img/categories_v2/building/default_","suffix":".png"},"primary":true}],"referralId":"v-1555320898","hasPerk":false},{"id":"572b563e498eeee239b1a44b","name":"Post Office Headquarters","location":{"lat":51.5204900965433,"lng":-0.08828695936124162,"labeledLatLngs":[{"label":"display","lat":51.5204900965433,"lng":-0.08828695936124162}],"distance":53,"cc":"GB","country":"United Kingdom","formattedAddress":["United Kingdom"]},"categories":[{"id":"4bf58dd8d48988d130941735","name":"Building","pluralName":"Buildings","shortName":"Building","icon":{"prefix":"https://ss3.4sqi.net/img/categories_v2/building/default_","suffix":".png"},"primary":true}],"referralId":"v-1555320898","hasPerk":false},{"id":"4b7a9ebef964a520e6332fe3","name":"Marks & Spencer","location":{"address":"70 Finsbury Pavement","lat":51.51953882011713,"lng":-0.08747220039367676,"labeledLatLngs":[{"label":"display","lat":51.51953882011713,"lng":-0.08747220039367676}],"distance":86,"postalCode":"EC2A 1SA","cc":"GB","city":"London","state":"Greater London","country":"United Kingdom","formattedAddress":["70 Finsbury Pavement","London","Greater London","EC2A 1SA","United Kingdom"]},"categories":[{"id":"4bf58dd8d48988d103951735","name":"Clothing Store","pluralName":"Clothing Stores","shortName":"Apparel","icon":{"prefix":"https://ss3.4sqi.net/img/categories_v2/shops/apparel_","suffix":".png"},"primary":true}],"referralId":"v-1555320898","hasPerk":false},{"id":"4ae0582bf964a520b67e21e3","name":"Wasabi","location":{"address":"74 Finsbury Pavement","lat":51.52032289299483,"lng":-0.08729967311165956,"labeledLatLngs":[{"label":"display","lat":51.52032289299483,"lng":-0.08729967311165956}],"distance":18,"postalCode":"EC2A 1AT","cc":"GB","city":"London","state":"Greater London","country":"United Kingdom","formattedAddress":["74 Finsbury Pavement","London","Greater London","EC2A 1AT","United Kingdom"]},"categories":[{"id":"4bf58dd8d48988d1d2941735","name":"Sushi Restaurant","pluralName":"Sushi Restaurants","shortName":"Sushi","icon":{"prefix":"https://ss3.4sqi.net/img/categories_v2/food/sushi_","suffix":".png"},"primary":true}],"referralId":"v-1555320898","hasPerk":false},{"id":"4b3a3064f964a520116225e3","name":"All Bar One","location":{"address":"127 Finsbury Pavement","lat":51.52041355425321,"lng":-0.08738556894742812,"labeledLatLngs":[{"label":"display","lat":51.52041355425321,"lng":-0.08738556894742812}],"distance":16,"postalCode":"EC2A 1NS","cc":"GB","city":"London","state":"Greater London","country":"United Kingdom","formattedAddress":["127 Finsbury Pavement","London","Greater London","EC2A 1NS","United Kingdom"]},"categories":[{"id":"4bf58dd8d48988d116941735","name":"Bar","pluralName":"Bars","shortName":"Bar","icon":{"prefix":"https://ss3.4sqi.net/img/categories_v2/nightlife/pub_","suffix":".png"},"primary":true}],"referralId":"v-1555320898","hasPerk":false},{"id":"5b16630916ef67002cd4ddce","name":"The Meriden Cafe","location":{"address":"20 Finsbury Street","crossStreet":"chiswell street","lat":51.5203,"lng":-0.087670684,"labeledLatLngs":[{"label":"display","lat":51.5203,"lng":-0.087670684}],"distance":6,"postalCode":"E C2A","cc":"GB","neighborhood":"Islington","city":"London","state":"Greater London","country":"United Kingdom","formattedAddress":["20 Finsbury Street (chiswell street)","London","Greater London","E C2A","United Kingdom"]},"categories":[{"id":"5032764e91d4c4b30a586d5a","name":"Campaign Office","pluralName":"Campaign Offices","shortName":"Campaign","icon":{"prefix":"https://ss3.4sqi.net/img/categories_v2/building/default_","suffix":".png"},"primary":true}],"referralId":"v-1555320898","hasPerk":false},{"id":"4bb46dc9bd4b9c74289b32f5","name":"Finsbury Square","location":{"address":"Finsbury Sq","crossStreet":"Finsbury Pavement","lat":51.52180950198949,"lng":-0.08499926547078349,"labeledLatLngs":[{"label":"display","lat":51.52180950198949,"lng":-0.08499926547078349}],"distance":243,"postalCode":"EC2A 1AA","cc":"GB","neighborhood":"Islington, London, Greater London","city":"London","state":"Greater London","country":"United Kingdom","formattedAddress":["Finsbury Sq (Finsbury Pavement)","London","Greater London","EC2A 1AA","United Kingdom"]},"categories":[{"id":"52e81612bcbc57f1066b7a25","name":"Pedestrian Plaza","pluralName":"Pedestrian Plazas","shortName":"Pedestrian Street/Plaza","icon":{"prefix":"https://ss3.4sqi.net/img/categories_v2/parks_outdoors/default_","suffix":".png"},"primary":true}],"referralId":"v-1555320898","hasPerk":false},{"id":"4acdaa8df964a52099cc20e3","name":"Pret A Manger","location":{"address":"1 Finsbury Sq","lat":51.5206859191109,"lng":-0.08724032275131179,"labeledLatLngs":[{"label":"display","lat":51.5206859191109,"lng":-0.08724032275131179}],"distance":47,"postalCode":"EC2A 1AE","cc":"GB","city":"Greater London","state":"Greater London","country":"United Kingdom","formattedAddress":["1 Finsbury Sq","Greater London","EC2A 1AE","United Kingdom"]},"categories":[{"id":"4bf58dd8d48988d1c5941735","name":"Sandwich Place","pluralName":"Sandwich Places","shortName":"Sandwiches","icon":{"prefix":"https://ss3.4sqi.net/img/categories_v2/food/deli_","suffix":".png"},"primary":true}],"referralId":"v-1555320898","hasPerk":false},{"id":"51c45d24498e0d1d86755b73","name":"NatWest","location":{"address":"Finsbury Square","lat":51.520421,"lng":-0.087309,"labeledLatLngs":[{"label":"display","lat":51.520421,"lng":-0.087309}],"distance":21,"cc":"GB","city":"London EC1","country":"United Kingdom","formattedAddress":["Finsbury Square","London EC1","United Kingdom"]},"categories":[{"id":"4bf58dd8d48988d10a951735","name":"Bank","pluralName":"Banks","shortName":"Bank","icon":{"prefix":"https://ss3.4sqi.net/img/categories_v2/shops/financial_","suffix":".png"},"primary":true}],"referralId":"v-1555320898","hasPerk":false},{"id":"4b0a9328f964a5203d2523e3","name":"itsu","location":{"address":"1 Finsbury Square","lat":51.52057797193389,"lng":-0.08734011082408524,"labeledLatLngs":[{"label":"display","lat":51.52057797193389,"lng":-0.08734011082408524}],"distance":33,"postalCode":"EC2A 1AE","cc":"GB","city":"London","state":"Greater London","country":"United Kingdom","formattedAddress":["1 Finsbury Square","London","Greater London","EC2A 1AE","United Kingdom"]},"categories":[{"id":"4bf58dd8d48988d1d2941735","name":"Sushi Restaurant","pluralName":"Sushi Restaurants","shortName":"Sushi","icon":{"prefix":"https://ss3.4sqi.net/img/categories_v2/food/sushi_","suffix":".png"},"primary":true}],"referralId":"v-1555320898","hasPerk":false},{"id":"539eec8d498e2365d2b6b311","name":"Notes Coffee & Wine","location":{"address":"1 Ropemaker St","lat":51.51920196046105,"lng":-0.08949557823320635,"labeledLatLngs":[{"label":"display","lat":51.51920196046105,"lng":-0.08949557823320635}],"distance":181,"postalCode":"EC2Y 9AW","cc":"GB","city":"London","state":"Greater London","country":"United Kingdom","formattedAddress":["1 Ropemaker St","London","Greater London","EC2Y 9AW","United Kingdom"]},"categories":[{"id":"4bf58dd8d48988d1e0931735","name":"Coffee Shop","pluralName":"Coffee Shops","shortName":"Coffee Shop","icon":{"prefix":"https://ss3.4sqi.net/img/categories_v2/food/coffeeshop_","suffix":".png"},"primary":true}],"referralId":"v-1555320898","hasPerk":false},{"id":"5190c1f4498eb9d7b70857a6","name":"Lloyds Bank","location":{"address":"109 Finsbury Pavement","lat":51.51951834368462,"lng":-0.08749127332772784,"labeledLatLngs":[{"label":"display","lat":51.51951834368462,"lng":-0.08749127332772784}],"distance":88,"postalCode":"EC2A 1LB","cc":"GB","city":"Moorgate","country":"United Kingdom","formattedAddress":["109 Finsbury Pavement","Moorgate","EC2A 1LB","United Kingdom"]},"categories":[{"id":"4bf58dd8d48988d10a951735","name":"Bank","pluralName":"Banks","shortName":"Bank","icon":{"prefix":"https://ss3.4sqi.net/img/categories_v2/shops/financial_","suffix":".png"},"primary":true}],"referralId":"v-1555320898","hasPerk":false},{"id":"50338438e4b0f7e8edf0912a","name":"Cisco Meraki","location":{"address":"10 Finsbury Square","lat":51.521166,"lng":-0.087579,"labeledLatLngs":[{"label":"display","lat":51.521166,"lng":-0.087579}],"distance":94,"postalCode":"EC2A 1AF","cc":"GB","neighborhood":"Finsbury Square","city":"London","state":"Greater London","country":"United Kingdom","formattedAddress":["10 Finsbury Square","London","Greater London","EC2A 1AF","United Kingdom"]},"categories":[{"id":"4bf58dd8d48988d125941735","name":"Tech Startup","pluralName":"Tech Startups","shortName":"Tech Startup","icon":{"prefix":"https://ss3.4sqi.net/img/categories_v2/shops/technology_","suffix":".png"},"primary":true}],"referralId":"v-1555320898","hasPerk":false},{"id":"4f3a79a6e4b0f48edbb3a280","name":"Moorgate","location":{"lat":51.519145898900064,"lng":-0.08761559732073028,"labeledLatLngs":[{"label":"display","lat":51.519145898900064,"lng":-0.08761559732073028}],"distance":130,"cc":"GB","city":"London","state":"Greater London","country":"United Kingdom","formattedAddress":["London","Greater London","United Kingdom"]},"categories":[{"id":"4f2a25ac4b909258e854f55f","name":"Neighborhood","pluralName":"Neighborhoods","shortName":"Neighborhood","icon":{"prefix":"https://ss3.4sqi.net/img/categories_v2/parks_outdoors/neighborhood_","suffix":".png"},"primary":true}],"referralId":"v-1555320898","hasPerk":false},{"id":"52011b24498e329f41aad7e7","name":"Beaufort Securities Ltd","location":{"address":"Finsbury Pavement","lat":51.51981335477491,"lng":-0.08757574633043998,"labeledLatLngs":[{"label":"display","lat":51.51981335477491,"lng":-0.08757574633043998}],"distance":55,"cc":"GB","country":"United Kingdom","formattedAddress":["Finsbury Pavement","United Kingdom"]},"categories":[{"id":"4bf58dd8d48988d130941735","name":"Building","pluralName":"Buildings","shortName":"Building","icon":{"prefix":"https://ss3.4sqi.net/img/categories_v2/building/default_","suffix":".png"},"primary":true}],"referralId":"v-1555320898","hasPerk":false},{"id":"4b84ecdaf964a520b24731e3","name":"Bloomberg","location":{"address":"39-45 Finsbury Sq","lat":51.520318297116916,"lng":-0.086551486519857,"labeledLatLngs":[{"label":"display","lat":51.520318297116916,"lng":-0.086551486519857}],"distance":70,"postalCode":"EC2A 1PQ","cc":"GB","city":"London","state":"Greater London","country":"United Kingdom","formattedAddress":["39-45 Finsbury Sq","London","Greater London","EC2A 1PQ","United Kingdom"]},"categories":[{"id":"4bf58dd8d48988d124941735","name":"Office","pluralName":"Offices","shortName":"Office","icon":{"prefix":"https://ss3.4sqi.net/img/categories_v2/building/default_","suffix":".png"},"primary":true}],"referralId":"v-1555320898","hasPerk":false},{"id":"5901a5faa6fe4d0aa57717b8","name":"EAT.","location":{"address":"71 Finsbury Pavement","lat":51.520081,"lng":-0.087134,"labeledLatLngs":[{"label":"display","lat":51.520081,"lng":-0.087134}],"distance":40,"postalCode":"EC2A 1AT","cc":"GB","neighborhood":"Islington","city":"London","state":"Greater London","country":"United Kingdom","formattedAddress":["71 Finsbury Pavement","London","Greater London","EC2A 1AT","United Kingdom"]},"categories":[{"id":"4bf58dd8d48988d1c5941735","name":"Sandwich Place","pluralName":"Sandwich Places","shortName":"Sandwiches","icon":{"prefix":"https://ss3.4sqi.net/img/categories_v2/food/deli_","suffix":".png"},"primary":true}],"referralId":"v-1555320898","hasPerk":false},{"id":"4c6002c03986e21e2730934f","name":"Gap","location":{"address":"74-78 Finsbury Pavement, London, EC2 1AT","lat":51.51993147529502,"lng":-0.08733129453557788,"labeledLatLngs":[{"label":"display","lat":51.51993147529502,"lng":-0.08733129453557788}],"distance":45,"postalCode":"EC2 1AT","cc":"GB","city":"London","state":"Greater London","country":"United Kingdom","formattedAddress":["74-78 Finsbury Pavement, London, EC2 1AT","London","Greater London","EC2 1AT","United Kingdom"]},"categories":[{"id":"4bf58dd8d48988d103951735","name":"Clothing Store","pluralName":"Clothing Stores","shortName":"Apparel","icon":{"prefix":"https://ss3.4sqi.net/img/categories_v2/shops/apparel_","suffix":".png"},"primary":true}],"referralId":"v-1555320898","hasPerk":false},{"id":"4b8c0cb4f964a520caba32e3","name":"J.P. Morgan","location":{"address":"20 Finsbury Streer","lat":51.520291254760274,"lng":-0.08848635140882723,"labeledLatLngs":[{"label":"display","lat":51.520291254760274,"lng":-0.08848635140882723}],"distance":63,"cc":"GB","city":"Islington","state":"Greater London","country":"United Kingdom","formattedAddress":["20 Finsbury Streer","Islington","Greater London","United Kingdom"]},"categories":[{"id":"503287a291d4c4b30a586d65","name":"Financial or Legal Service","pluralName":"Financial or Legal Services","shortName":"Financial / Legal","icon":{"prefix":"https://ss3.4sqi.net/img/categories_v2/shops/financial_","suffix":".png"},"primary":true}],"referralId":"v-1555320898","hasPerk":false},{"id":"5208c41911d29b25cea9a2ce","name":"Infinera Ltd.","location":{"address":"125 Finsbury Pavement","lat":51.51985549926758,"lng":-0.0885189026594162,"labeledLatLngs":[{"label":"display","lat":51.51985549926758,"lng":-0.0885189026594162}],"distance":83,"postalCode":"EC2A 1NQ","cc":"GB","city":"London","state":"Greater London","country":"United Kingdom","formattedAddress":["125 Finsbury Pavement","London","Greater London","EC2A 1NQ","United Kingdom"]},"categories":[{"id":"4bf58dd8d48988d124941735","name":"Office","pluralName":"Offices","shortName":"Office","icon":{"prefix":"https://ss3.4sqi.net/img/categories_v2/building/default_","suffix":".png"},"primary":true}],"referralId":"v-1555320898","hasPerk":false},{"id":"507ec69ce4b058f60a342ab1","name":"Finsbury Square bus stop C","location":{"lat":51.52024496301431,"lng":-0.08727706018563486,"labeledLatLngs":[{"label":"display","lat":51.52024496301431,"lng":-0.08727706018563486}],"distance":21,"cc":"GB","country":"United Kingdom","formattedAddress":["United Kingdom"]},"categories":[{"id":"4bf58dd8d48988d12b951735","name":"Bus Line","pluralName":"Bus Lines","shortName":"Bus","icon":{"prefix":"https://ss3.4sqi.net/img/categories_v2/travel/busstation_","suffix":".png"},"primary":true}],"referralId":"v-1555320898","hasPerk":false},{"id":"4d2422ba73508eec0e9be376","name":"Simply Business","location":{"address":"One Finsbury Square","crossStreet":"Chiswell Street","lat":51.52062418705389,"lng":-0.08766833658026801,"labeledLatLngs":[{"label":"display","lat":51.52062418705389,"lng":-0.08766833658026801}],"distance":34,"postalCode":"EC2A 1AE","cc":"GB","city":"London","state":"Greater London","country":"United Kingdom","formattedAddress":["One Finsbury Square (Chiswell Street)","London","Greater London","EC2A 1AE","United Kingdom"]},"categories":[{"id":"4bf58dd8d48988d124941735","name":"Office","pluralName":"Offices","shortName":"Office","icon":{"prefix":"https://ss3.4sqi.net/img/categories_v2/building/default_","suffix":".png"},"primary":true}],"referralId":"v-1555320898","hasPerk":false},{"id":"4da5b4b50437667c9b319b90","name":"NASDAQ OMX","location":{"address":"131 Finsbury Pavement","crossStreet":"Lackington St","lat":51.51945148558887,"lng":-0.08750105836170467,"labeledLatLngs":[{"label":"display","lat":51.51945148558887,"lng":-0.08750105836170467}],"distance":96,"postalCode":"EC2","cc":"GB","city":"London","state":"Greater London","country":"United Kingdom","formattedAddress":["131 Finsbury Pavement (Lackington St)","London","Greater London"," EC2","United Kingdom"]},"categories":[{"id":"4bf58dd8d48988d124941735","name":"Office","pluralName":"Offices","shortName":"Office","icon":{"prefix":"https://ss3.4sqi.net/img/categories_v2/building/default_","suffix":".png"},"primary":true}],"referralId":"v-1555320898","hasPerk":false},{"id":"56fa4315498e3c699ca347c0","name":"Bricklane","location":{"address":"26 Finsbury Square","lat":51.522654,"lng":-0.085432,"labeledLatLngs":[{"label":"display","lat":51.522654,"lng":-0.085432}],"distance":299,"postalCode":"EC2A 1DS","cc":"GB","city":"London","state":"Greater London","country":"United Kingdom","formattedAddress":["26 Finsbury Square","London","Greater London","EC2A 1DS","United Kingdom"]},"categories":[{"id":"4bf58dd8d48988d125941735","name":"Tech Startup","pluralName":"Tech Startups","shortName":"Tech Startup","icon":{"prefix":"https://ss3.4sqi.net/img/categories_v2/shops/technology_","suffix":".png"},"primary":true}],"referralId":"v-1555320898","hasPerk":false},{"id":"4c443fa274ffc928e43a75cc","name":"Currys PC World","location":{"address":"14-20 Chiswell Street","lat":51.52079475401897,"lng":-0.0889449582797397,"labeledLatLngs":[{"label":"display","lat":51.52079475401897,"lng":-0.0889449582797397}],"distance":108,"postalCode":"EC1Y 4TW","cc":"GB","city":"London","state":"Greater London","country":"United Kingdom","formattedAddress":["14-20 Chiswell Street","London","Greater London","EC1Y 4TW","United Kingdom"]},"categories":[{"id":"4bf58dd8d48988d122951735","name":"Electronics Store","pluralName":"Electronics Stores","shortName":"Electronics","icon":{"prefix":"https://ss3.4sqi.net/img/categories_v2/shops/technology_","suffix":".png"},"primary":true}],"referralId":"v-1555320898","hasPerk":false},{"id":"4c88b4ea105237045b69c2f1","name":"Wood Mackenzie","location":{"address":"1 Finsbury Square","lat":51.52086732349741,"lng":-0.08750438690185547,"labeledLatLngs":[{"label":"display","lat":51.52086732349741,"lng":-0.08750438690185547}],"distance":61,"cc":"GB","city":"London","state":"Greater London","country":"United Kingdom","formattedAddress":["1 Finsbury Square","London","Greater London","United Kingdom"]},"categories":[{"id":"4bf58dd8d48988d124941735","name":"Office","pluralName":"Offices","shortName":"Office","icon":{"prefix":"https://ss3.4sqi.net/img/categories_v2/building/default_","suffix":".png"},"primary":true}],"referralId":"v-1555320898","hasPerk":false},{"id":"4be991ab415e20a1f4fae3bb","name":"Fitch Learning","location":{"address":"4 Chiswell Street","lat":51.52065152497933,"lng":-0.08790933886370401,"labeledLatLngs":[{"label":"display","lat":51.52065152497933,"lng":-0.08790933886370401}],"distance":44,"postalCode":"EC1Y 4UP","cc":"GB","city":"London","state":"Greater London","country":"United Kingdom","formattedAddress":["4 Chiswell Street","London","Greater London","EC1Y 4UP","United Kingdom"]},"categories":[{"id":"4bf58dd8d48988d1ad941735","name":"Trade School","pluralName":"Trade Schools","shortName":"Trade School","icon":{"prefix":"https://ss3.4sqi.net/img/categories_v2/education/tradeschool_","suffix":".png"},"primary":true}],"referralId":"v-1555320898","hasPerk":false},{"id":"54002203498e0bcc5f587ccb","name":"Runway East 2.0","location":{"address":"10 Finsbury Square","lat":51.521228179810336,"lng":-0.08718535438344563,"labeledLatLngs":[{"label":"display","lat":51.521228179810336,"lng":-0.08718535438344563}],"distance":105,"postalCode":"EC2A 1AF","cc":"GB","neighborhood":"I","city":"London","state":"Greater London","country":"United Kingdom","formattedAddress":["10 Finsbury Square","London","Greater London","EC2A 1AF","United Kingdom"]},"categories":[{"id":"4bf58dd8d48988d174941735","name":"Coworking Space","pluralName":"Coworking Spaces","shortName":"Coworking Space","icon":{"prefix":"https://ss3.4sqi.net/img/categories_v2/building/office_coworkingspace_","suffix":".png"},"primary":true}],"referralId":"v-1555320898","hasPerk":false},{"id":"4fb36416e4b00e6c8407b150","name":"Mako","location":{"lat":51.52020242012474,"lng":-0.0881636441146418,"labeledLatLngs":[{"label":"display","lat":51.52020242012474,"lng":-0.0881636441146418}],"distance":42,"cc":"GB","country":"United Kingdom","formattedAddress":["United Kingdom"]},"categories":[{"id":"4bf58dd8d48988d124941735","name":"Office","pluralName":"Offices","shortName":"Office","icon":{"prefix":"https://ss3.4sqi.net/img/categories_v2/building/default_","suffix":".png"},"primary":true}],"referralId":"v-1555320898","hasPerk":false},{"id":"4bd997ede914a593e20857fa","name":"Fitch Ratings","location":{"address":"101 Finsbury Pavement","lat":51.51932690362702,"lng":-0.08676429781890727,"labeledLatLngs":[{"label":"display","lat":51.51932690362702,"lng":-0.08676429781890727}],"distance":123,"postalCode":"EC2A 1RS","cc":"GB","city":"London","state":"Greater London","country":"United Kingdom","formattedAddress":["101 Finsbury Pavement","London","Greater London","EC2A 1RS","United Kingdom"]},"categories":[{"id":"4bf58dd8d48988d124941735","name":"Office","pluralName":"Offices","shortName":"Office","icon":{"prefix":"https://ss3.4sqi.net/img/categories_v2/building/default_","suffix":".png"},"primary":true}],"referralId":"v-1555320898","hasPerk":false},{"id":"50a3491be4b013429d55b4f7","name":"101 Finsbury Pavement","location":{"address":"101 Finsbury Pavement","lat":51.51967232293209,"lng":-0.08874149274080746,"labeledLatLngs":[{"label":"display","lat":51.51967232293209,"lng":-0.08874149274080746}],"distance":108,"cc":"GB","city":"London","state":"Greater London","country":"United Kingdom","formattedAddress":["101 Finsbury Pavement","London","Greater London","United Kingdom"]},"categories":[{"id":"4bf58dd8d48988d130941735","name":"Building","pluralName":"Buildings","shortName":"Building","icon":{"prefix":"https://ss3.4sqi.net/img/categories_v2/building/default_","suffix":".png"},"primary":true}],"referralId":"v-1555320898","hasPerk":false},{"id":"4acddc6af964a5204dcd20e3","name":"Xbridge","location":{"address":"1 Finsbury Square","crossStreet":"Chiswell street","lat":51.520619404087114,"lng":-0.08750368106316418,"labeledLatLngs":[{"label":"display","lat":51.520619404087114,"lng":-0.08750368106316418}],"distance":34,"postalCode":"EC2A 1AE","cc":"GB","city":"London","state":"Greater London","country":"United Kingdom","formattedAddress":["1 Finsbury Square (Chiswell street)","London","Greater London","EC2A 1AE","United Kingdom"]},"categories":[{"id":"503287a291d4c4b30a586d65","name":"Financial or Legal Service","pluralName":"Financial or Legal Services","shortName":"Financial / Legal","icon":{"prefix":"https://ss3.4sqi.net/img/categories_v2/shops/financial_","suffix":".png"},"primary":true}],"referralId":"v-1555320898","hasPerk":false},{"id":"5b911377b6b04b002cb0e3e6","name":"TechHub London","location":{"address":"101 Finsbury Pavement","lat":51.519841,"lng":-0.087665,"labeledLatLngs":[{"label":"display","lat":51.519841,"lng":-0.087665}],"distance":53,"postalCode":"EC2A 1RS","cc":"GB","city":"London","state":"Greater London","country":"United Kingdom","formattedAddress":["101 Finsbury Pavement","London","Greater London","EC2A 1RS","United Kingdom"]},"categories":[{"id":"4bf58dd8d48988d174941735","name":"Coworking Space","pluralName":"Coworking Spaces","shortName":"Coworking Space","icon":{"prefix":"https://ss3.4sqi.net/img/categories_v2/building/office_coworkingspace_","suffix":".png"},"primary":true}],"referralId":"v-1555320898","hasPerk":false},{"id":"4ac518d4f964a520aaa720e3","name":"Bloomberg Space","location":{"address":"50 Finsbury Sq","crossStreet":"at Chiswell St","lat":51.52045967673098,"lng":-0.08683242791738208,"labeledLatLngs":[{"label":"display","lat":51.52045967673098,"lng":-0.08683242791738208}],"distance":53,"postalCode":"EC2A 1HD","cc":"GB","neighborhood":"City of London, London, Greater London","city":"London","state":"Greater London","country":"United Kingdom","formattedAddress":["50 Finsbury Sq (at Chiswell St)","London","Greater London","EC2A 1HD","United Kingdom"]},"categories":[{"id":"4bf58dd8d48988d1e2931735","name":"Art Gallery","pluralName":"Art Galleries","shortName":"Art Gallery","icon":{"prefix":"https://ss3.4sqi.net/img/categories_v2/arts_entertainment/artgallery_","suffix":".png"},"primary":true}],"referralId":"v-1555320898","hasPerk":false},{"id":"4d6168fed7206ea8b50300f2","name":"Nationwide","location":{"address":"101/107 Finsbury Court, Moorgate","lat":51.51949829888746,"lng":-0.08789093651785151,"labeledLatLngs":[{"label":"display","lat":51.51949829888746,"lng":-0.08789093651785151}],"distance":93,"postalCode":"EC2A 1RS","cc":"GB","city":"London","state":"Greater London","country":"United Kingdom","formattedAddress":["101/107 Finsbury Court, Moorgate","London","Greater London","EC2A 1RS","United Kingdom"]},"categories":[{"id":"4bf58dd8d48988d10a951735","name":"Bank","pluralName":"Banks","shortName":"Bank","icon":{"prefix":"https://ss3.4sqi.net/img/categories_v2/shops/financial_","suffix":".png"},"primary":true}],"referralId":"v-1555320898","hasPerk":false},{"id":"5703ae18498e54f6555a7b88","name":"Chalana","location":{"address":"Finsbury Square","lat":51.520859,"lng":-0.086416,"labeledLatLngs":[{"label":"display","lat":51.520859,"lng":-0.086416}],"distance":100,"cc":"GB","country":"United Kingdom","formattedAddress":["Finsbury Square","United Kingdom"]},"categories":[{"id":"4bf58dd8d48988d16b941735","name":"Brazilian Restaurant","pluralName":"Brazilian Restaurants","shortName":"Brazilian","icon":{"prefix":"https://ss3.4sqi.net/img/categories_v2/food/argentinian_","suffix":".png"},"primary":true}],"referralId":"v-1555320898","hasPerk":false},{"id":"4b190e2df964a52080d723e3","name":"British Red Cross","location":{"address":"44 Moorfields","lat":51.51932477553243,"lng":-0.08884562901438592,"labeledLatLngs":[{"label":"display","lat":51.51932477553243,"lng":-0.08884562901438592}],"distance":141,"postalCode":"EC2Y 9AL","cc":"GB","city":"London","state":"Greater London","country":"United Kingdom","formattedAddress":["44 Moorfields","London","Greater London","EC2Y 9AL","United Kingdom"]},"categories":[{"id":"4bf58dd8d48988d124941735","name":"Office","pluralName":"Offices","shortName":"Office","icon":{"prefix":"https://ss3.4sqi.net/img/categories_v2/building/default_","suffix":".png"},"primary":true}],"referralId":"v-1555320898","hasPerk":false},{"id":"505ae8cee4b04c76795c0e47","name":"Arbuthnot Latham","location":{"lat":51.519694417159435,"lng":-0.08876209366036403,"labeledLatLngs":[{"label":"display","lat":51.519694417159435,"lng":-0.08876209366036403}],"distance":107,"cc":"GB","country":"United Kingdom","formattedAddress":["United Kingdom"]},"categories":[{"id":"4bf58dd8d48988d124941735","name":"Office","pluralName":"Offices","shortName":"Office","icon":{"prefix":"https://ss3.4sqi.net/img/categories_v2/building/default_","suffix":".png"},"primary":true}],"referralId":"v-1555320898","hasPerk":false},{"id":"4c8b3a95a92fa0937bff98bf","name":"Softcat London","location":{"address":"120 Moorgate","lat":51.51896816666666,"lng":-0.08780791111111111,"labeledLatLngs":[{"label":"display","lat":51.51896816666666,"lng":-0.08780791111111111}],"distance":150,"cc":"GB","city":"London","state":"Greater London","country":"United Kingdom","formattedAddress":["120 Moorgate","London","Greater London","United Kingdom"]},"categories":[{"id":"4bf58dd8d48988d124941735","name":"Office","pluralName":"Offices","shortName":"Office","icon":{"prefix":"https://ss3.4sqi.net/img/categories_v2/building/default_","suffix":".png"},"primary":true}],"referralId":"v-1555320898","hasPerk":false},{"id":"504db0e0e4b0548542c26314","name":"Oracle","location":{"address":"5th Floor, 100 Greys Inn","lat":51.52128575704062,"lng":-0.11282202439198019,"labeledLatLngs":[{"label":"display","lat":51.52128575704062,"lng":-0.11282202439198019}],"distance":1752,"cc":"GB","city":"London","state":"Greater London","country":"United Kingdom","formattedAddress":["5th Floor, 100 Greys Inn","London","Greater London","United Kingdom"]},"categories":[{"id":"4bf58dd8d48988d130941735","name":"Building","pluralName":"Buildings","shortName":"Building","icon":{"prefix":"https://ss3.4sqi.net/img/categories_v2/building/default_","suffix":".png"},"primary":true}],"referralId":"v-1555320898","hasPerk":false},{"id":"4f13e5b7e4b047204730dff5","name":"Finsbury Square Junction","location":{"address":"City Road","crossStreet":"Chiswell Street","lat":51.52074754168016,"lng":-0.08714435829826606,"labeledLatLngs":[{"label":"display","lat":51.52074754168016,"lng":-0.08714435829826606}],"distance":56,"cc":"GB","city":"London","state":"Greater London","country":"United Kingdom","formattedAddress":["City Road (Chiswell Street)","London","Greater London","United Kingdom"]},"categories":[{"id":"4bf58dd8d48988d165941735","name":"Scenic Lookout","pluralName":"Scenic Lookouts","shortName":"Scenic Lookout","icon":{"prefix":"https://ss3.4sqi.net/img/categories_v2/parks_outdoors/sceniclookout_","suffix":".png"},"primary":true}],"referralId":"v-1555320898","hasPerk":false},{"id":"4e96bdb04901d620b7c0fada","name":"10 Chiswell St","location":{"address":"10 Chiswell St","lat":51.52089096727077,"lng":-0.08820365850988485,"labeledLatLngs":[{"label":"display","lat":51.52089096727077,"lng":-0.08820365850988485}],"distance":77,"cc":"GB","city":"Islington","state":"Greater London","country":"United Kingdom","formattedAddress":["10 Chiswell St","Islington","Greater London","United Kingdom"]},"categories":[{"id":"4bf58dd8d48988d130941735","name":"Building","pluralName":"Buildings","shortName":"Building","icon":{"prefix":"https://ss3.4sqi.net/img/categories_v2/building/default_","suffix":".png"},"primary":true}],"referralId":"v-1555320898","hasPerk":false},{"id":"559a7c61498ebeafa8b5071b","name":"Nearst. HQ","location":{"address":"14 Dufferin Street","lat":51.519581516978946,"lng":-0.08850421032204189,"labeledLatLngs":[{"label":"display","lat":51.519581516978946,"lng":-0.08850421032204189}],"distance":104,"postalCode":"EC1Y 8PD","cc":"GB","neighborhood":"Islington","city":"London","state":"Greater London","country":"United Kingdom","formattedAddress":["14 Dufferin Street","London","Greater London","EC1Y 8PD","United Kingdom"]},"categories":[{"id":"4bf58dd8d48988d125941735","name":"Tech Startup","pluralName":"Tech Startups","shortName":"Tech Startup","icon":{"prefix":"https://ss3.4sqi.net/img/categories_v2/shops/technology_","suffix":".png"},"primary":true}],"referralId":"v-1555320898","hasPerk":false},{"id":"5ba8d5f9dab4b1002cbc1d70","name":"Slow Smoke Bbq","location":{"lat":51.520902,"lng":-0.08664,"labeledLatLngs":[{"label":"display","lat":51.520902,"lng":-0.08664}],"distance":91,"postalCode":"E C2A","cc":"GB","city":"London","state":"Greater London","country":"United Kingdom","formattedAddress":["London","Greater London","E C2A","United Kingdom"]},"categories":[{"id":"4bf58dd8d48988d1df931735","name":"BBQ Joint","pluralName":"BBQ Joints","shortName":"BBQ","icon":{"prefix":"https://ss3.4sqi.net/img/categories_v2/food/bbqalt_","suffix":".png"},"primary":true}],"referralId":"v-1555320898","hasPerk":false},{"id":"5beaebf24acb19002caed298","name":"Off To Work Hq","location":{"lat":51.520594,"lng":-0.087913,"labeledLatLngs":[{"label":"display","lat":51.520594,"lng":-0.087913}],"distance":38,"postalCode":"EC1Y 4UP","cc":"GB","city":"London","state":"Greater London","country":"United Kingdom","formattedAddress":["London","Greater London","EC1Y 4UP","United Kingdom"]},"categories":[{"id":"4bf58dd8d48988d124941735","name":"Office","pluralName":"Offices","shortName":"Office","icon":{"prefix":"https://ss3.4sqi.net/img/categories_v2/building/default_","suffix":".png"},"primary":true}],"referralId":"v-1555320898","hasPerk":false},{"id":"588898fa1d21ba0af70f9dec","name":"125 Finsbury Pavement","location":{"address":"125 Finsbury Pavement","lat":51.51999,"lng":-0.0877307,"labeledLatLngs":[{"label":"display","lat":51.51999,"lng":-0.0877307}],"distance":37,"postalCode":"EC2A 1NQ","cc":"GB","city":"London","state":"Greater London","country":"United Kingdom","formattedAddress":["125 Finsbury Pavement","London","Greater London","EC2A 1NQ","United Kingdom"]},"categories":[{"id":"56aa371be4b08b9a8d573517","name":"Business Center","pluralName":"Business Centers","shortName":"Business Center","icon":{"prefix":"https://ss3.4sqi.net/img/categories_v2/building/default_","suffix":".png"},"primary":true}],"referralId":"v-1555320898","hasPerk":false},{"id":"5bae2cf9cad1b600393e833c","name":"Unity Working","location":{"address":"20 Chiswell Street","lat":51.52092072985822,"lng":-0.08871138095855713,"labeledLatLngs":[{"label":"display","lat":51.52092072985822,"lng":-0.08871138095855713}],"distance":103,"postalCode":"EC1Y 4TW","cc":"GB","city":"London","state":"Greater London","country":"United Kingdom","formattedAddress":["20 Chiswell Street","London","Greater London","EC1Y 4TW","United Kingdom"]},"categories":[{"id":"4bf58dd8d48988d130941735","name":"Building","pluralName":"Buildings","shortName":"Building","icon":{"prefix":"https://ss3.4sqi.net/img/categories_v2/building/default_","suffix":".png"},"primary":true}],"referralId":"v-1555320898","hasPerk":false},{"id":"58763942d6fe904f588ebc8b","name":"Drinki","location":{"address":"Runway East Featherstone","crossStreet":"19-23 Featherstone Street","lat":51.52452,"lng":-0.088505,"labeledLatLngs":[{"label":"display","lat":51.52452,"lng":-0.088505}],"distance":472,"postalCode":"EC2A 1AF","cc":"GB","city":"London","state":"Greater London","country":"United Kingdom","formattedAddress":["Runway East Featherstone (19-23 Featherstone Street)","London","Greater London","EC2A 1AF","United Kingdom"]},"categories":[{"id":"4bf58dd8d48988d124941735","name":"Office","pluralName":"Offices","shortName":"Office","icon":{"prefix":"https://ss3.4sqi.net/img/categories_v2/building/default_","suffix":".png"},"primary":true}],"venuePage":{"id":"392152882"},"referralId":"v-1555320898","hasPerk":false},{"id":"5a22a0bdb23dfa2af341c578","name":"Snow And Rock","location":{"lat":51.520441,"lng":-0.088988,"labeledLatLngs":[{"label":"display","lat":51.520441,"lng":-0.088988}],"distance":98,"postalCode":"EC1Y 4AB","cc":"GB","city":"London","state":"Greater London","country":"United Kingdom","formattedAddress":["London","Greater London","EC1Y 4AB","United Kingdom"]},"categories":[{"id":"52f2ab2ebcbc57f1066b8b22","name":"Outdoor Supply Store","pluralName":"Outdoor Supply Stores","shortName":"Outdoor Supplies","icon":{"prefix":"https://ss3.4sqi.net/img/categories_v2/shops/default_","suffix":".png"},"primary":true}],"referralId":"v-1555320898","hasPerk":false},{"id":"532858b0498edfdae2e0c066","name":"C40 Climate Leadership Group","location":{"lat":51.520286,"lng":-0.086733,"labeledLatLngs":[{"label":"display","lat":51.520286,"lng":-0.086733}],"distance":58,"cc":"GB","city":"London","state":"Greater London","country":"United Kingdom","formattedAddress":["London","Greater London","United Kingdom"]},"categories":[{"id":"50328a8e91d4c4b30a586d6c","name":"Non-Profit","pluralName":"Non-Profits","shortName":"Non-Profit","icon":{"prefix":"https://ss3.4sqi.net/img/categories_v2/building/default_","suffix":".png"},"primary":true}],"referralId":"v-1555320898","hasPerk":false},{"id":"5048701ae4b0424d58f8f401","name":"Tryzens","location":{"address":"5th Floor","crossStreet":"101 Finsbury Pavement","lat":51.51957179282689,"lng":-0.08769457264461392,"labeledLatLngs":[{"label":"display","lat":51.51957179282689,"lng":-0.08769457264461392}],"distance":83,"postalCode":"EC2A 1RS","cc":"GB","city":"London","state":"Greater London","country":"United Kingdom","formattedAddress":["5th Floor (101 Finsbury Pavement)","London","Greater London","EC2A 1RS","United Kingdom"]},"categories":[{"id":"4bf58dd8d48988d124941735","name":"Office","pluralName":"Offices","shortName":"Office","icon":{"prefix":"https://ss3.4sqi.net/img/categories_v2/building/default_","suffix":".png"},"primary":true}],"referralId":"v-1555320898","hasPerk":false},{"id":"57d00c17498ea470a395e134","name":"Linguarama","location":{"lat":51.519806,"lng":-0.08757044,"labeledLatLngs":[{"label":"display","lat":51.519806,"lng":-0.08757044}],"distance":56,"postalCode":"EC2A 1RS","cc":"GB","city":"London","state":"Greater London","country":"United Kingdom","formattedAddress":["London","Greater London","EC2A 1RS","United Kingdom"]},"categories":[{"id":"52e81612bcbc57f1066b7a48","name":"Language School","pluralName":"Language Schools","shortName":"Language School","icon":{"prefix":"https://ss3.4sqi.net/img/categories_v2/education/default_","suffix":".png"},"primary":true}],"referralId":"v-1555320898","hasPerk":false},{"id":"4d717908320b8cfa9a9669e9","name":"Merrill Corporation","location":{"address":"15 Bonhill Street","lat":51.52321046866931,"lng":-0.08511185646057129,"labeledLatLngs":[{"label":"display","lat":51.52321046866931,"lng":-0.08511185646057129}],"distance":364,"postalCode":"EC2A 4DN","cc":"GB","city":"City of London","state":"Greater London","country":"United Kingdom","formattedAddress":["15 Bonhill Street","City of London","Greater London","EC2A 4DN","United Kingdom"]},"categories":[{"id":"503287a291d4c4b30a586d65","name":"Financial or Legal Service","pluralName":"Financial or Legal Services","shortName":"Financial / Legal","icon":{"prefix":"https://ss3.4sqi.net/img/categories_v2/shops/financial_","suffix":".png"},"primary":true}],"referralId":"v-1555320898","hasPerk":false},{"id":"5235d9ed11d2c78af692b229","name":"Finsbury Square Bus Stop D","location":{"lat":51.52129241725935,"lng":-0.08683320641416231,"labeledLatLngs":[{"label":"display","lat":51.52129241725935,"lng":-0.08683320641416231}],"distance":120,"cc":"GB","country":"United Kingdom","formattedAddress":["United Kingdom"]},"categories":[{"id":"52f2ab2ebcbc57f1066b8b4f","name":"Bus Stop","pluralName":"Bus Stops","shortName":"Bus Stop","icon":{"prefix":"https://ss3.4sqi.net/img/categories_v2/travel/busstation_","suffix":".png"},"primary":true}],"referralId":"v-1555320898","hasPerk":false},{"id":"4f7aad9be4b0747c658f49de","name":"Runners Need","location":{"address":"72 Chiswell Street","lat":51.52075710720901,"lng":-0.08871399929308998,"labeledLatLngs":[{"label":"display","lat":51.52075710720901,"lng":-0.08871399929308998}],"distance":93,"postalCode":"EC1Y 4AB","cc":"GB","city":"London","state":"Greater London","country":"United Kingdom","formattedAddress":["72 Chiswell Street","London","Greater London","EC1Y 4AB","United Kingdom"]},"categories":[{"id":"4bf58dd8d48988d1f2941735","name":"Sporting Goods Shop","pluralName":"Sporting Goods Shops","shortName":"Sporting Goods","icon":{"prefix":"https://ss3.4sqi.net/img/categories_v2/shops/sports_outdoors_","suffix":".png"},"primary":true}],"referralId":"v-1555320898","hasPerk":false},{"id":"5592c457498ecc2a2d0dbcec","name":"TechHub Moorgate Roof Terrace","location":{"address":"20 Ropemaker St","lat":51.519708,"lng":-0.088371,"labeledLatLngs":[{"label":"display","lat":51.519708,"lng":-0.088371}],"distance":87,"cc":"GB","city":"London","state":"Greater London","country":"United Kingdom","formattedAddress":["20 Ropemaker St","London","Greater London","United Kingdom"]},"categories":[{"id":"4bf58dd8d48988d165941735","name":"Scenic Lookout","pluralName":"Scenic Lookouts","shortName":"Scenic Lookout","icon":{"prefix":"https://ss3.4sqi.net/img/categories_v2/parks_outdoors/sceniclookout_","suffix":".png"},"primary":true}],"referralId":"v-1555320898","hasPerk":false},{"id":"5c87a363835c9a002cc1c1ef","name":"Saute Pasta","location":{"lat":51.520945,"lng":-0.086501,"labeledLatLngs":[{"label":"display","lat":51.520945,"lng":-0.086501}],"distance":102,"postalCode":"E C2A","cc":"GB","city":"London","state":"Greater London","country":"United Kingdom","formattedAddress":["London","Greater London","E C2A","United Kingdom"]},"categories":[{"id":"4bf58dd8d48988d110941735","name":"Italian Restaurant","pluralName":"Italian Restaurants","shortName":"Italian","icon":{"prefix":"https://ss3.4sqi.net/img/categories_v2/food/italian_","suffix":".png"},"primary":true}],"referralId":"v-1555320898","hasPerk":false},{"id":"5989adea0d8a0f590063b95f","name":"Capo Pasta","location":{"address":"Finsbury Sq","lat":51.52096078458771,"lng":-0.08636713027954102,"labeledLatLngs":[{"label":"display","lat":51.52096078458771,"lng":-0.08636713027954102}],"distance":110,"postalCode":"EC2A 1RR","cc":"GB","city":"London","state":"Greater London","country":"United Kingdom","formattedAddress":["Finsbury Sq","London","Greater London","EC2A 1RR","United Kingdom"]},"categories":[{"id":"56aa371be4b08b9a8d57350b","name":"Food Stand","pluralName":"Food Stands","shortName":"Food Stand","icon":{"prefix":"https://ss3.4sqi.net/img/categories_v2/travel/movingtarget_","suffix":".png"},"primary":true}],"referralId":"v-1555320898","hasPerk":false},{"id":"51df8b748bbd729a06014365","name":"CQF // Fitch Moorgate","location":{"address":"4 Chiswell Street","lat":51.520720455682316,"lng":-0.08825540542602539,"labeledLatLngs":[{"label":"display","lat":51.520720455682316,"lng":-0.08825540542602539}],"distance":65,"postalCode":"EC1Y 4UP","cc":"GB","city":"London","state":"Greater London","country":"United Kingdom","formattedAddress":["4 Chiswell Street","London","Greater London","EC1Y 4UP","United Kingdom"]},"categories":[{"id":"4bf58dd8d48988d124941735","name":"Office","pluralName":"Offices","shortName":"Office","icon":{"prefix":"https://ss3.4sqi.net/img/categories_v2/building/default_","suffix":".png"},"primary":true}],"referralId":"v-1555320898","hasPerk":false},{"id":"58d12ea57d66be3a65436a26","name":"Rooks Nest Ventures","location":{"lat":51.52117,"lng":-0.08673,"labeledLatLngs":[{"label":"display","lat":51.52117,"lng":-0.08673}],"distance":111,"cc":"GB","country":"United Kingdom","formattedAddress":["United Kingdom"]},"categories":[{"id":"4bf58dd8d48988d124941735","name":"Office","pluralName":"Offices","shortName":"Office","icon":{"prefix":"https://ss3.4sqi.net/img/categories_v2/building/default_","suffix":".png"},"primary":true}],"referralId":"v-1555320898","hasPerk":false},{"id":"523021b911d20f31bd4e1c94","name":"Caftastic","location":{"lat":51.52038279989614,"lng":-0.08624322149412127,"labeledLatLngs":[{"label":"display","lat":51.52038279989614,"lng":-0.08624322149412127}],"distance":92,"cc":"GB","country":"United Kingdom","formattedAddress":["United Kingdom"]},"categories":[{"id":"4bf58dd8d48988d16d941735","name":"Café","pluralName":"Cafés","shortName":"Café","icon":{"prefix":"https://ss3.4sqi.net/img/categories_v2/food/cafe_","suffix":".png"},"primary":true}],"referralId":"v-1555320898","hasPerk":false},{"id":"59416b5a898bdc51e1f06c3f","name":"World Productions","location":{"address":"101 Finsbury Pavement","lat":51.519622,"lng":-0.08766,"labeledLatLngs":[{"label":"display","lat":51.519622,"lng":-0.08766}],"distance":77,"postalCode":"EC2A 1RS","cc":"GB","city":"London","state":"Greater London","country":"United Kingdom","formattedAddress":["101 Finsbury Pavement","London","Greater London","EC2A 1RS","United Kingdom"]},"categories":[{"id":"4bf58dd8d48988d124941735","name":"Office","pluralName":"Offices","shortName":"Office","icon":{"prefix":"https://ss3.4sqi.net/img/categories_v2/building/default_","suffix":".png"},"primary":true}],"referralId":"v-1555320898","hasPerk":false},{"id":"4fb36366e4b076d9e9a3ee0b","name":"Mitsubishi UFJ Securities International","location":{"address":"Ropemaker Place, 25 Ropemaker Street","lat":51.520041,"lng":-0.088842,"labeledLatLngs":[{"label":"display","lat":51.520041,"lng":-0.088842}],"distance":93,"postalCode":"EC2Y 9AJ","cc":"GB","city":"London","state":"Greater London","country":"United Kingdom","formattedAddress":["Ropemaker Place, 25 Ropemaker Street","London","Greater London","EC2Y 9AJ","United Kingdom"]},"categories":[{"id":"4bf58dd8d48988d124941735","name":"Office","pluralName":"Offices","shortName":"Office","icon":{"prefix":"https://ss3.4sqi.net/img/categories_v2/building/default_","suffix":".png"},"primary":true}],"referralId":"v-1555320898","hasPerk":false},{"id":"57265af4498ee93a2b0f6449","name":"OWLR HQ","location":{"address":"20 Ropemaker St","crossStreet":"Moorgate","lat":51.519812619877136,"lng":-0.08857325842916985,"labeledLatLngs":[{"label":"display","lat":51.519812619877136,"lng":-0.08857325842916985}],"distance":89,"postalCode":"EC2Y 9AR","cc":"GB","city":"London","state":"Greater London","country":"United Kingdom","formattedAddress":["20 Ropemaker St (Moorgate)","London","Greater London","EC2Y 9AR","United Kingdom"]},"categories":[{"id":"4bf58dd8d48988d125941735","name":"Tech Startup","pluralName":"Tech Startups","shortName":"Tech Startup","icon":{"prefix":"https://ss3.4sqi.net/img/categories_v2/shops/technology_","suffix":".png"},"primary":true}],"referralId":"v-1555320898","hasPerk":false},{"id":"51388e94e4b077bc63b633df","name":"NatWest","location":{"lat":51.52012645020873,"lng":-0.08766747434155005,"labeledLatLngs":[{"label":"display","lat":51.52012645020873,"lng":-0.08766747434155005}],"distance":22,"cc":"GB","country":"United Kingdom","formattedAddress":["United Kingdom"]},"categories":[{"id":"4bf58dd8d48988d10a951735","name":"Bank","pluralName":"Banks","shortName":"Bank","icon":{"prefix":"https://ss3.4sqi.net/img/categories_v2/shops/financial_","suffix":".png"},"primary":true}],"referralId":"v-1555320898","hasPerk":false},{"id":"4c9b6bdf80958cfa3d494bd4","name":"EE","location":{"address":"Moorgate","lat":51.521183,"lng":-0.086986,"labeledLatLngs":[{"label":"display","lat":51.521183,"lng":-0.086986}],"distance":104,"cc":"GB","city":"London","state":"Greater London","country":"United Kingdom","formattedAddress":["Moorgate","London","Greater London","United Kingdom"]},"categories":[{"id":"4f04afc02fb6e1c99f3db0bc","name":"Mobile Phone Shop","pluralName":"Mobile Phone Shops","shortName":"Mobile Phones","icon":{"prefix":"https://ss3.4sqi.net/img/categories_v2/shops/mobilephoneshop_","suffix":".png"},"primary":true}],"referralId":"v-1555320898","hasPerk":false},{"id":"4c91dab42626a1cdf397356b","name":"CPC Ventures","location":{"address":"4 Chiswell St","lat":51.520785,"lng":-0.08816433333333333,"labeledLatLngs":[{"label":"display","lat":51.520785,"lng":-0.08816433333333333}],"distance":66,"postalCode":"EC1 Y 4","cc":"GB","city":"Islington","state":"Greater London","country":"United Kingdom","formattedAddress":["4 Chiswell St","Islington","Greater London","EC1 Y 4","United Kingdom"]},"categories":[{"id":"4bf58dd8d48988d1ff931735","name":"Convention Center","pluralName":"Convention Centers","shortName":"Convention Center","icon":{"prefix":"https://ss3.4sqi.net/img/categories_v2/building/conventioncenter_","suffix":".png"},"primary":true}],"referralId":"v-1555320898","hasPerk":false},{"id":"4beaa40462c0c928ec08e1d4","name":"Herbert Smith Freehills LLP","location":{"address":"City Gate House","crossStreet":"39-45 Finsbury Sq","lat":51.520430433846315,"lng":-0.08600744692585725,"labeledLatLngs":[{"label":"display","lat":51.520430433846315,"lng":-0.08600744692585725}],"distance":109,"postalCode":"EC2A 1PX","cc":"GB","city":"London","state":"Greater London","country":"United Kingdom","formattedAddress":["City Gate House (39-45 Finsbury Sq)","London","Greater London","EC2A 1PX","United Kingdom"]},"categories":[{"id":"4bf58dd8d48988d124941735","name":"Office","pluralName":"Offices","shortName":"Office","icon":{"prefix":"https://ss3.4sqi.net/img/categories_v2/building/default_","suffix":".png"},"primary":true}],"referralId":"v-1555320898","hasPerk":false},{"id":"5719027c498e3ef5eb20a2b5","name":"Bloomberg Auditorium","location":{"address":"50 Finsbury Sq","crossStreet":"Finsbury Pavement","lat":51.520186386907454,"lng":-0.08681774139404297,"labeledLatLngs":[{"label":"display","lat":51.520186386907454,"lng":-0.08681774139404297}],"distance":54,"postalCode":"EC2A 1PQ","cc":"GB","city":"Islington","state":"Greater London","country":"United Kingdom","formattedAddress":["50 Finsbury Sq (Finsbury Pavement)","Islington","Greater London","EC2A 1PQ","United Kingdom"]},"categories":[{"id":"4bf58dd8d48988d173941735","name":"Auditorium","pluralName":"Auditoriums","shortName":"Auditorium","icon":{"prefix":"https://ss3.4sqi.net/img/categories_v2/building/auditorium_","suffix":".png"},"primary":true}],"referralId":"v-1555320898","hasPerk":false},{"id":"57badedc498e3a31d0eb348c","name":"Wrisk HQ","location":{"address":"20 Ropemaker Street","lat":51.519791,"lng":-0.08859,"labeledLatLngs":[{"label":"display","lat":51.519791,"lng":-0.08859}],"distance":91,"postalCode":"EC2Y 9AR","cc":"GB","city":"London","state":"Greater London","country":"United Kingdom","formattedAddress":["20 Ropemaker Street","London","Greater London","EC2Y 9AR","United Kingdom"]},"categories":[{"id":"4bf58dd8d48988d125941735","name":"Tech Startup","pluralName":"Tech Startups","shortName":"Tech Startup","icon":{"prefix":"https://ss3.4sqi.net/img/categories_v2/shops/technology_","suffix":".png"},"primary":true}],"referralId":"v-1555320898","hasPerk":false},{"id":"5259282d11d249bbaf41e77a","name":"charles stanley, luke street","location":{"lat":51.520024169911956,"lng":-0.08713916433536724,"labeledLatLngs":[{"label":"display","lat":51.520024169911956,"lng":-0.08713916433536724}],"distance":44,"cc":"GB","country":"United Kingdom","formattedAddress":["United Kingdom"]},"categories":[{"id":"4bf58dd8d48988d124941735","name":"Office","pluralName":"Offices","shortName":"Office","icon":{"prefix":"https://ss3.4sqi.net/img/categories_v2/building/default_","suffix":".png"},"primary":true}],"referralId":"v-1555320898","hasPerk":false},{"id":"4ded1d0245dd64cbbd14e9ce","name":"New Moorgate Bus Stop","location":{"lat":51.52002548501362,"lng":-0.08730071117166213,"labeledLatLngs":[{"label":"display","lat":51.52002548501362,"lng":-0.08730071117166213}],"distance":37,"cc":"GB","country":"United Kingdom","formattedAddress":["United Kingdom"]},"categories":[{"id":"52f2ab2ebcbc57f1066b8b4f","name":"Bus Stop","pluralName":"Bus Stops","shortName":"Bus Stop","icon":{"prefix":"https://ss3.4sqi.net/img/categories_v2/travel/busstation_","suffix":".png"},"primary":true}],"referralId":"v-1555320898","hasPerk":false},{"id":"4faa71e0e4b04f8c94309e48","name":"Occupy Finsbury Square","location":{"address":"Finsbury Square","lat":51.52048654146848,"lng":-0.08621136416915573,"labeledLatLngs":[{"label":"display","lat":51.52048654146848,"lng":-0.08621136416915573}],"distance":96,"cc":"GB","country":"United Kingdom","formattedAddress":["Finsbury Square","United Kingdom"]},"categories":[{"id":"4bf58dd8d48988d1e4941735","name":"Campground","pluralName":"Campgrounds","shortName":"Campground","icon":{"prefix":"https://ss3.4sqi.net/img/categories_v2/parks_outdoors/campground_","suffix":".png"},"primary":true}],"referralId":"v-1555320898","hasPerk":false},{"id":"4b923ab5f964a52068ed33e3","name":"7city","location":{"lat":51.520541,"lng":-0.088052,"labeledLatLngs":[{"label":"display","lat":51.520541,"lng":-0.088052}],"distance":41,"cc":"GB","country":"United Kingdom","formattedAddress":["United Kingdom"]},"categories":[{"id":"4bf58dd8d48988d171941735","name":"Event Space","pluralName":"Event Spaces","shortName":"Event Space","icon":{"prefix":"https://ss3.4sqi.net/img/categories_v2/building/eventspace_","suffix":".png"},"primary":true}],"referralId":"v-1555320898","hasPerk":false},{"id":"5097b625e4b055b34e1bb64d","name":"Taylor Rafferty London","location":{"address":"1 Ropemaker Street","lat":51.51928,"lng":-0.08717,"labeledLatLngs":[{"label":"display","lat":51.51928,"lng":-0.08717}],"distance":118,"cc":"GB","city":"London","state":"Greater London","country":"United Kingdom","formattedAddress":["1 Ropemaker Street","London","Greater London","United Kingdom"]},"categories":[{"id":"4bf58dd8d48988d124941735","name":"Office","pluralName":"Offices","shortName":"Office","icon":{"prefix":"https://ss3.4sqi.net/img/categories_v2/building/default_","suffix":".png"},"primary":true}],"referralId":"v-1555320898","hasPerk":false},{"id":"4cb5897f8db0a14362fe6216","name":"Kreston Reeves","location":{"address":"24 Chiswell Street","lat":51.52070038333334,"lng":-0.088097,"labeledLatLngs":[{"label":"display","lat":51.52070038333334,"lng":-0.088097}],"distance":56,"cc":"GB","city":"London","state":"Greater London","country":"United Kingdom","formattedAddress":["24 Chiswell Street","London","Greater London","United Kingdom"]},"categories":[{"id":"4bf58dd8d48988d124941735","name":"Office","pluralName":"Offices","shortName":"Office","icon":{"prefix":"https://ss3.4sqi.net/img/categories_v2/building/default_","suffix":".png"},"primary":true}],"referralId":"v-1555320898","hasPerk":false},{"id":"4ba33a5cf964a520c43038e3","name":"Bank of Nova Scotia","location":{"address":"33 Finsbury Square","lat":51.520442,"lng":-0.08671,"labeledLatLngs":[{"label":"display","lat":51.520442,"lng":-0.08671}],"distance":61,"cc":"GB","city":"London","state":"Greater London","country":"United Kingdom","formattedAddress":["33 Finsbury Square","London","Greater London","United Kingdom"]},"categories":[{"id":"4bf58dd8d48988d124941735","name":"Office","pluralName":"Offices","shortName":"Office","icon":{"prefix":"https://ss3.4sqi.net/img/categories_v2/building/default_","suffix":".png"},"primary":true}],"referralId":"v-1555320898","hasPerk":false},{"id":"4ddf9845d4c0935ddd5f4fe1","name":"London Rebuilding Society","location":{"address":"Bonhill Road","lat":51.52017033333334,"lng":-0.08699466666666666,"labeledLatLngs":[{"label":"display","lat":51.52017033333334,"lng":-0.08699466666666666}],"distance":43,"cc":"GB","country":"United Kingdom","formattedAddress":["Bonhill Road","United Kingdom"]},"categories":[{"id":"4bf58dd8d48988d171941735","name":"Event Space","pluralName":"Event Spaces","shortName":"Event Space","icon":{"prefix":"https://ss3.4sqi.net/img/categories_v2/building/eventspace_","suffix":".png"},"primary":true}],"referralId":"v-1555320898","hasPerk":false},{"id":"4c651a39f67ec9283fab5627","name":"Xerox Veritas House","location":{"address":"125 Finsbury Pavement","lat":51.51972567618289,"lng":-0.08813681394137486,"labeledLatLngs":[{"label":"display","lat":51.51972567618289,"lng":-0.08813681394137486}],"distance":76,"postalCode":"EC1A 2NQ","cc":"GB","city":"London","state":"Greater London","country":"United Kingdom","formattedAddress":["125 Finsbury Pavement","London","Greater London","EC1A 2NQ","United Kingdom"]},"categories":[{"id":"4bf58dd8d48988d124941735","name":"Office","pluralName":"Offices","shortName":"Office","icon":{"prefix":"https://ss3.4sqi.net/img/categories_v2/building/default_","suffix":".png"},"primary":true}],"referralId":"v-1555320898","hasPerk":false},{"id":"4ff31f43e4b087d490b35b76","name":"Carbon Growth","location":{"lat":51.52056,"lng":-0.088729,"labeledLatLngs":[{"label":"display","lat":51.52056,"lng":-0.088729}],"distance":84,"cc":"GB","country":"United Kingdom","formattedAddress":["United Kingdom"]},"categories":[{"id":"4bf58dd8d48988d124941735","name":"Office","pluralName":"Offices","shortName":"Office","icon":{"prefix":"https://ss3.4sqi.net/img/categories_v2/building/default_","suffix":".png"},"primary":true}],"referralId":"v-1555320898","hasPerk":false},{"id":"512f1ed8e4b0aa46ccc9a484","name":"Yomego London","location":{"address":"Longbow House","crossStreet":"14 Chiswell Street","lat":51.52075682090867,"lng":-0.0890927946266392,"labeledLatLngs":[{"label":"display","lat":51.52075682090867,"lng":-0.0890927946266392}],"distance":116,"cc":"GB","city":"London","state":"Greater London","country":"United Kingdom","formattedAddress":["Longbow House (14 Chiswell Street)","London","Greater London","United Kingdom"]},"categories":[{"id":"4bf58dd8d48988d130941735","name":"Building","pluralName":"Buildings","shortName":"Building","icon":{"prefix":"https://ss3.4sqi.net/img/categories_v2/building/default_","suffix":".png"},"primary":true}],"referralId":"v-1555320898","hasPerk":false},{"id":"522d9f8111d2d87d32ec5d26","name":"Infinera","location":{"lat":51.519916,"lng":-0.087546,"labeledLatLngs":[{"label":"display","lat":51.519916,"lng":-0.087546}],"distance":44,"cc":"GB","country":"United Kingdom","formattedAddress":["United Kingdom"]},"categories":[{"id":"4bf58dd8d48988d124941735","name":"Office","pluralName":"Offices","shortName":"Office","icon":{"prefix":"https://ss3.4sqi.net/img/categories_v2/building/default_","suffix":".png"},"primary":true}],"referralId":"v-1555320898","hasPerk":false},{"id":"4df8a1eefa76e4d6e216e19e","name":"Café Eight","location":{"address":"Level 8, Ropemaker","crossStreet":"Moor Lane","lat":51.52005286873513,"lng":-0.08954286575317383,"labeledLatLngs":[{"label":"display","lat":51.52005286873513,"lng":-0.08954286575317383}],"distance":139,"postalCode":"EC2Y 9HD","cc":"GB","city":"London","state":"Greater London","country":"United Kingdom","formattedAddress":["Level 8, Ropemaker (Moor Lane)","London","Greater London","EC2Y 9HD","United Kingdom"]},"categories":[{"id":"4bf58dd8d48988d1c4941735","name":"Restaurant","pluralName":"Restaurants","shortName":"Restaurant","icon":{"prefix":"https://ss3.4sqi.net/img/categories_v2/food/default_","suffix":".png"},"primary":true}],"referralId":"v-1555320898","hasPerk":false},{"id":"50506023e4b087fd01767d15","name":"radtac","location":{"address":"101 Ginsburg Pavement","lat":51.51972595082686,"lng":-0.08776951802716171,"labeledLatLngs":[{"label":"display","lat":51.51972595082686,"lng":-0.08776951802716171}],"distance":67,"cc":"GB","city":"London","state":"Greater London","country":"United Kingdom","formattedAddress":["101 Ginsburg Pavement","London","Greater London","United Kingdom"]},"categories":[{"id":"4bf58dd8d48988d1f4941735","name":"Design Studio","pluralName":"Design Studios","shortName":"Design","icon":{"prefix":"https://ss3.4sqi.net/img/categories_v2/shops/design_","suffix":".png"},"primary":true}],"referralId":"v-1555320898","hasPerk":false},{"id":"4ee5dba32c5b5fc6cdac8497","name":"Calypso Technology","location":{"address":"17 Dominion Street","lat":51.51944463971748,"lng":-0.08668986891050802,"labeledLatLngs":[{"label":"display","lat":51.51944463971748,"lng":-0.08668986891050802}],"distance":114,"postalCode":"Ec2m 2ef","cc":"GB","city":"London","state":"Greater London","country":"United Kingdom","formattedAddress":["17 Dominion Street","London","Greater London","Ec2m 2ef","United Kingdom"]},"categories":[{"id":"4bf58dd8d48988d124941735","name":"Office","pluralName":"Offices","shortName":"Office","icon":{"prefix":"https://ss3.4sqi.net/img/categories_v2/building/default_","suffix":".png"},"primary":true}],"referralId":"v-1555320898","hasPerk":false},{"id":"4bfe4a67e9309521823662ab","name":"LoveJPM Studio","location":{"address":"Finsbury Dials, 20 Finsbury Street","crossStreet":"btw Finsbury St & Chiswell St","lat":51.52018202850288,"lng":-0.08850860622657837,"labeledLatLngs":[{"label":"display","lat":51.52018202850288,"lng":-0.08850860622657837}],"distance":66,"postalCode":"EC2Y 9AQ","cc":"GB","city":"London","state":"Greater London","country":"United Kingdom","formattedAddress":["Finsbury Dials, 20 Finsbury Street (btw Finsbury St & Chiswell St)","London","Greater London","EC2Y 9AQ","United Kingdom"]},"categories":[{"id":"4bf58dd8d48988d124941735","name":"Office","pluralName":"Offices","shortName":"Office","icon":{"prefix":"https://ss3.4sqi.net/img/categories_v2/building/default_","suffix":".png"},"primary":true}],"referralId":"v-1555320898","hasPerk":false},{"id":"56dec839498e07ca3252e1f3","name":"Real Paella","location":{"address":"Finsbury Square","lat":51.520683,"lng":-0.08627124,"labeledLatLngs":[{"label":"display","lat":51.520683,"lng":-0.08627124}],"distance":98,"cc":"GB","city":"London","state":"Greater London","country":"United Kingdom","formattedAddress":["Finsbury Square","London","Greater London","United Kingdom"]},"categories":[{"id":"56aa371be4b08b9a8d57350b","name":"Food Stand","pluralName":"Food Stands","shortName":"Food Stand","icon":{"prefix":"https://ss3.4sqi.net/img/categories_v2/travel/movingtarget_","suffix":".png"},"primary":true}],"referralId":"v-1555320898","hasPerk":false},{"id":"4e5362acc65bea7986d248e7","name":"Communisis","location":{"lat":51.520715533741935,"lng":-0.08913833229519796,"labeledLatLngs":[{"label":"display","lat":51.520715533741935,"lng":-0.08913833229519796}],"distance":117,"cc":"GB","city":"Islington","state":"Greater London","country":"United Kingdom","formattedAddress":["Islington","Greater London","United Kingdom"]},"categories":[{"id":"4bf58dd8d48988d124941735","name":"Office","pluralName":"Offices","shortName":"Office","icon":{"prefix":"https://ss3.4sqi.net/img/categories_v2/building/default_","suffix":".png"},"primary":true}],"referralId":"v-1555320898","hasPerk":false},{"id":"564317f5498edb32742afba7","name":"FlatClub HQ","location":{"lat":51.51975611992403,"lng":-0.08861325278222677,"labeledLatLngs":[{"label":"display","lat":51.51975611992403,"lng":-0.08861325278222677}],"distance":95,"cc":"GB","country":"United Kingdom","formattedAddress":["United Kingdom"]},"categories":[{"id":"4bf58dd8d48988d130941735","name":"Building","pluralName":"Buildings","shortName":"Building","icon":{"prefix":"https://ss3.4sqi.net/img/categories_v2/building/default_","suffix":".png"},"primary":true}],"referralId":"v-1555320898","hasPerk":false},{"id":"50373eb1e4b0d8345ff1b1b4","name":"Joe Bean","location":{"lat":51.52070255197548,"lng":-0.08613694762527928,"labeledLatLngs":[{"label":"display","lat":51.52070255197548,"lng":-0.08613694762527928}],"distance":108,"cc":"GB","country":"United Kingdom","formattedAddress":["United Kingdom"]},"categories":[{"id":"4bf58dd8d48988d1e0931735","name":"Coffee Shop","pluralName":"Coffee Shops","shortName":"Coffee Shop","icon":{"prefix":"https://ss3.4sqi.net/img/categories_v2/food/coffeeshop_","suffix":".png"},"primary":true}],"referralId":"v-1555320898","hasPerk":false},{"id":"52f897b311d2d4c3198fc564","name":"J.P. Morgan Asset Management","location":{"address":"20 Finsbury Street","crossStreet":"Chiswell","lat":51.520011,"lng":-0.088732,"labeledLatLngs":[{"label":"display","lat":51.520011,"lng":-0.088732}],"distance":87,"cc":"GB","city":"London","state":"Greater London","country":"United Kingdom","formattedAddress":["20 Finsbury Street (Chiswell)","London","Greater London","United Kingdom"]},"categories":[{"id":"4bf58dd8d48988d124941735","name":"Office","pluralName":"Offices","shortName":"Office","icon":{"prefix":"https://ss3.4sqi.net/img/categories_v2/building/default_","suffix":".png"},"primary":true}],"referralId":"v-1555320898","hasPerk":false},{"id":"4f8684d9e4b0a7faca5d863b","name":"City Trams","location":{"lat":51.52055883009106,"lng":-0.08610780922493608,"labeledLatLngs":[{"label":"display","lat":51.52055883009106,"lng":-0.08610780922493608}],"distance":105,"cc":"GB","country":"United Kingdom","formattedAddress":["United Kingdom"]},"categories":[{"id":"4bf58dd8d48988d16d941735","name":"Café","pluralName":"Cafés","shortName":"Café","icon":{"prefix":"https://ss3.4sqi.net/img/categories_v2/food/cafe_","suffix":".png"},"primary":true}],"referralId":"v-1555320898","hasPerk":false},{"id":"4e3691236284ea7e110b5f87","name":"MUSI Bank","location":{"lat":51.51972027110413,"lng":-0.08849835730341277,"labeledLatLngs":[{"label":"display","lat":51.51972027110413,"lng":-0.08849835730341277}],"distance":92,"cc":"GB","country":"United Kingdom","formattedAddress":["United Kingdom"]},"categories":[{"id":"4bf58dd8d48988d130941735","name":"Building","pluralName":"Buildings","shortName":"Building","icon":{"prefix":"https://ss3.4sqi.net/img/categories_v2/building/default_","suffix":".png"},"primary":true}],"referralId":"v-1555320898","hasPerk":false},{"id":"5500677d498ea3fcf0f1f9ef","name":"Orega Moorgate","location":{"address":"101 Finsbury Pavement, Moorgate","lat":51.51987929452591,"lng":-0.08780479431152344,"labeledLatLngs":[{"label":"display","lat":51.51987929452591,"lng":-0.08780479431152344}],"distance":51,"postalCode":"EC2A 1RS","cc":"GB","city":"London","state":"Greater London","country":"United Kingdom","formattedAddress":["101 Finsbury Pavement, Moorgate","London","Greater London","EC2A 1RS","United Kingdom"]},"categories":[{"id":"4bf58dd8d48988d124941735","name":"Office","pluralName":"Offices","shortName":"Office","icon":{"prefix":"https://ss3.4sqi.net/img/categories_v2/building/default_","suffix":".png"},"primary":true}],"referralId":"v-1555320898","hasPerk":false},{"id":"526d3ffa498ec0ae7c0322d2","name":"Moorgate Disaster Memorial","location":{"lat":51.51970045815033,"lng":-0.08753414004325448,"labeledLatLngs":[{"label":"display","lat":51.51970045815033,"lng":-0.08753414004325448}],"distance":68,"cc":"GB","country":"United Kingdom","formattedAddress":["United Kingdom"]},"categories":[{"id":"4deefb944765f83613cdba6e","name":"Historic Site","pluralName":"Historic Sites","shortName":"Historic Site","icon":{"prefix":"https://ss3.4sqi.net/img/categories_v2/arts_entertainment/historicsite_","suffix":".png"},"primary":true}],"referralId":"v-1555320898","hasPerk":false},{"id":"55d83b80498e1ee2d0fff9cc","name":"Finsbury Coffee Shop London","location":{"address":"Finsbury London","lat":51.520835876464844,"lng":-0.08747991174459457,"labeledLatLngs":[{"label":"display","lat":51.520835876464844,"lng":-0.08747991174459457}],"distance":58,"cc":"GB","city":"Finsbury London","country":"United Kingdom","formattedAddress":["Finsbury London","Finsbury London","United Kingdom"]},"categories":[{"id":"4bf58dd8d48988d143941735","name":"Breakfast Spot","pluralName":"Breakfast Spots","shortName":"Breakfast","icon":{"prefix":"https://ss3.4sqi.net/img/categories_v2/food/breakfast_","suffix":".png"},"primary":true}],"referralId":"v-1555320898","hasPerk":false},{"id":"4c4736a60f5aa593bb297d76","name":"La Paquerette","location":{"lat":51.520878,"lng":-0.086389,"labeledLatLngs":[{"label":"display","lat":51.520878,"lng":-0.086389}],"distance":103,"cc":"GB","country":"United Kingdom","formattedAddress":["United Kingdom"]},"categories":[{"id":"4bf58dd8d48988d110941735","name":"Italian Restaurant","pluralName":"Italian Restaurants","shortName":"Italian","icon":{"prefix":"https://ss3.4sqi.net/img/categories_v2/food/italian_","suffix":".png"},"primary":true}],"referralId":"v-1555320898","hasPerk":false},{"id":"4e661022e4cdf1e2c0d0fa75","name":"Fag break","location":{"lat":51.52043,"lng":-0.088211,"labeledLatLngs":[{"label":"display","lat":51.52043,"lng":-0.088211}],"distance":45,"cc":"GB","city":"Islington","country":"United Kingdom","formattedAddress":["Islington","United Kingdom"]},"categories":[],"referralId":"v-1555320898","hasPerk":false},{"id":"50b5dff5e4b0b4f6d9adde24","name":"Oracle Social","location":{"lat":51.519261,"lng":-0.087444,"labeledLatLngs":[{"label":"display","lat":51.519261,"lng":-0.087444}],"distance":117,"cc":"GB","country":"United Kingdom","formattedAddress":["United Kingdom"]},"categories":[{"id":"4bf58dd8d48988d134941735","name":"Dance Studio","pluralName":"Dance Studios","shortName":"Dance Studio","icon":{"prefix":"https://ss3.4sqi.net/img/categories_v2/arts_entertainment/performingarts_dancestudio_","suffix":".png"},"primary":true}],"referralId":"v-1555320898","hasPerk":false},{"id":"509a67e6e4b08997fd76cf85","name":"Itzu Moorgate","location":{"lat":51.52012752761824,"lng":-0.08620977839084829,"labeledLatLngs":[{"label":"display","lat":51.52012752761824,"lng":-0.08620977839084829}],"distance":96,"cc":"GB","country":"United Kingdom","formattedAddress":["United Kingdom"]},"categories":[{"id":"4bf58dd8d48988d142941735","name":"Asian Restaurant","pluralName":"Asian Restaurants","shortName":"Asian","icon":{"prefix":"https://ss3.4sqi.net/img/categories_v2/food/asian_","suffix":".png"},"primary":true}],"referralId":"v-1555320898","hasPerk":false},{"id":"4ceffdd082125481a2c56ca1","name":"Itau europa","location":{"address":"17, Dominion Street, 6th floor","lat":51.519344,"lng":-0.086757,"labeledLatLngs":[{"label":"display","lat":51.519344,"lng":-0.086757}],"distance":122,"cc":"GB","city":"London","state":"Greater London","country":"United Kingdom","formattedAddress":["17, Dominion Street, 6th floor","London","Greater London","United Kingdom"]},"categories":[],"referralId":"v-1555320898","hasPerk":false},{"id":"555ae916498e3f02019043ce","name":"Chartered Institute of Management Accountants","location":{"address":"1 South Place","lat":51.51937202362673,"lng":-0.08738963790038845,"labeledLatLngs":[{"label":"display","lat":51.51937202362673,"lng":-0.08738963790038845}],"distance":105,"postalCode":"EC2M 2RB","cc":"GB","city":"London","state":"Greater London","country":"United Kingdom","formattedAddress":["1 South Place","London","Greater London","EC2M 2RB","United Kingdom"]},"categories":[{"id":"50328a8e91d4c4b30a586d6c","name":"Non-Profit","pluralName":"Non-Profits","shortName":"Non-Profit","icon":{"prefix":"https://ss3.4sqi.net/img/categories_v2/building/default_","suffix":".png"},"primary":true}],"referralId":"v-1555320898","hasPerk":false},{"id":"4f38e318e4b0179e5f0b7d0a","name":"JPMAM Coffee deli","location":{"lat":51.52004373209244,"lng":-0.08844199159530383,"labeledLatLngs":[{"label":"display","lat":51.52004373209244,"lng":-0.08844199159530383}],"distance":67,"cc":"GB","country":"United Kingdom","formattedAddress":["United Kingdom"]},"categories":[{"id":"4bf58dd8d48988d16d941735","name":"Café","pluralName":"Cafés","shortName":"Café","icon":{"prefix":"https://ss3.4sqi.net/img/categories_v2/food/cafe_","suffix":".png"},"primary":true}],"referralId":"v-1555320898","hasPerk":false},{"id":"4c936e20fc9a224b4673faf1","name":"3 Bunhill Row","location":{"address":"Bunhill Row","lat":51.520599032312624,"lng":-0.08866756299248622,"labeledLatLngs":[{"label":"display","lat":51.520599032312624,"lng":-0.08866756299248622}],"distance":82,"postalCode":"EC1","cc":"GB","city":"London","state":"Greater London","country":"United Kingdom","formattedAddress":["Bunhill Row","London","Greater London"," EC1","United Kingdom"]},"categories":[],"referralId":"v-1555320898","hasPerk":false},{"id":"4e8039e9722ebb4fb9097788","name":"RADTAC Ltd","location":{"address":"101 Finsbury Pavement","lat":51.51961225598923,"lng":-0.08754730224609375,"labeledLatLngs":[{"label":"display","lat":51.51961225598923,"lng":-0.08754730224609375}],"distance":78,"postalCode":"EC2A 1RS","cc":"GB","city":"London","state":"Greater London","country":"United Kingdom","formattedAddress":["101 Finsbury Pavement","London","Greater London","EC2A 1RS","United Kingdom"]},"categories":[{"id":"4bf58dd8d48988d124941735","name":"Office","pluralName":"Offices","shortName":"Office","icon":{"prefix":"https://ss3.4sqi.net/img/categories_v2/building/default_","suffix":".png"},"primary":true}],"referralId":"v-1555320898","hasPerk":false},{"id":"4fc4a4f1e4b0b59cdf2a0a73","name":"J. P. Morgan Asset Management","location":{"address":"Finsbury Dials","lat":51.520023167366936,"lng":-0.08848210036408163,"labeledLatLngs":[{"label":"display","lat":51.520023167366936,"lng":-0.08848210036408163}],"distance":70,"cc":"GB","city":"London","state":"Greater London","country":"United Kingdom","formattedAddress":["Finsbury Dials","London","Greater London","United Kingdom"]},"categories":[{"id":"4bf58dd8d48988d124941735","name":"Office","pluralName":"Offices","shortName":"Office","icon":{"prefix":"https://ss3.4sqi.net/img/categories_v2/building/default_","suffix":".png"},"primary":true}],"referralId":"v-1555320898","hasPerk":false},{"id":"52a2277411d240d3c7113e36","name":"Jane Street Europe","location":{"lat":51.520534,"lng":-0.08824,"labeledLatLngs":[{"label":"display","lat":51.520534,"lng":-0.08824}],"distance":52,"cc":"GB","country":"United Kingdom","formattedAddress":["United Kingdom"]},"categories":[{"id":"4bf58dd8d48988d119941735","name":"Hookah Bar","pluralName":"Hookah Bars","shortName":"Hookah Bar","icon":{"prefix":"https://ss3.4sqi.net/img/categories_v2/nightlife/hookahbar_","suffix":".png"},"primary":true}],"referralId":"v-1555320898","hasPerk":false}],"confident":false}}